Level,ID,SchoolName,Region,Division,Municipality,Excess,Shortage,SPED_Excess,SPED_Shortage,STR,Longitude,Latitude
ES,131456,Agyabao ES,CARAGA,Agusan del Norte,LAS NIEVES,0,2,0,0,30,125.6286031,8.7293552
ES,131457,Ambacon ES,CARAGA,Agusan del Norte,LAS NIEVES,0,1,0,0,27,125.6270922,8.713132
ES,131458,Bonifacio ES,CARAGA,Agusan del Norte,LAS NIEVES,0,1,0,0,24,125.6560796,8.7638185
ES,131459,Casiklan ES,CARAGA,Agusan del Norte,LAS NIEVES,4,0,0,0,20,125.4624731,8.7289352
ES,131460,Dalagangan ES,CARAGA,Agusan del Norte,LAS NIEVES,0,0,0,0,28,125.57161,8.69635
ES,131461,Durian ES,CARAGA,Agusan del Norte,LAS NIEVES,0,1,0,0,27,125.49261,8.71607
ES,131462,E. G. Montilla ES,CARAGA,Agusan del Norte,LAS NIEVES,0,1,0,0,28,125.6364403,8.7038716
ES,131463,Fatima ES,CARAGA,Agusan del Norte,LAS NIEVES,1,0,0,0,14,125.50842,8.73197
ES,131464,Ibuan ES,CARAGA,Agusan del Norte,LAS NIEVES,0,0,0,0,17,125.51649,8.7239
ES,131465,Kahayagan ES,CARAGA,Agusan del Norte,LAS NIEVES,2,0,0,0,14,125.5588191,8.7599057
ES,131466,Katipunan ES,CARAGA,Agusan del Norte,LAS NIEVES,0,0,0,0,22,125.6256634,8.7502244
ES,131467,Balungagan ES,CARAGA,Agusan del Norte,LAS NIEVES,0,0,0,0,22,125.54204,8.73256
ES,131468,Las Nieves CES,CARAGA,Agusan del Norte,LAS NIEVES,5,0,0,0,20,125.6026894,8.7318968
ES,131470,Lingayao ES,CARAGA,Agusan del Norte,LAS NIEVES,0,1,0,0,27,125.5844006,8.7456373
ES,131471,Malicato ES,CARAGA,Agusan del Norte,LAS NIEVES,0,2,0,0,24,125.614254,8.7377507
ES,131472,Maningalao ES,CARAGA,Agusan del Norte,LAS NIEVES,0,4,0,0,31,125.57278,8.72008
ES,131473,Marcos Calo ES,CARAGA,Agusan del Norte,LAS NIEVES,0,3,0,0,33,125.67115,8.74228
ES,131474,Mat-i CES,CARAGA,Agusan del Norte,LAS NIEVES,0,0,0,0,25,125.5913745,8.7101428
ES,131475,New Cana-an ES,CARAGA,Agusan del Norte,LAS NIEVES,0,0,0,0,18,125.43164,8.73935
ES,131476,Pinanaan ES,CARAGA,Agusan del Norte,LAS NIEVES,0,4,0,0,38,125.59994,8.70023
ES,131477,Sagbuco ES,CARAGA,Agusan del Norte,LAS NIEVES,0,1,0,0,26,125.64959,8.72687
ES,131478,San Roque ES,CARAGA,Agusan del Norte,LAS NIEVES,0,1,0,0,18,125.66425,8.70491
ES,131479,Subait Elementary School,CARAGA,Agusan del Norte,LAS NIEVES,0,0,0,0,20,125.64504,8.79362
ES,131480,Tinucoran ES,CARAGA,Agusan del Norte,LAS NIEVES,0,2,0,0,21,125.6018776,8.7471963
ES,211505,Bokbokon Elementary School,CARAGA,Agusan del Norte,LAS NIEVES,0,2,0,0,32,125.32878,8.74218
ES,500048,Lawan-Lawan Elementary School,CARAGA,Agusan del Norte,LAS NIEVES,6,0,0,0,11,125.39388,8.73503
ES,131415,A.P. Quiamjot ES,CARAGA,Agusan del Norte,CARMEN,0,0,0,0,14,125.2794,8.95951
ES,131416,Cahayagan ES,CARAGA,Agusan del Norte,CARMEN,0,0,0,0,22,125.23572,9.03256
ES,131417,Carmen CES,CARAGA,Agusan del Norte,CARMEN,7,0,0,1,24,125.29336,8.98796
ES,131418,Cervantina ES,CARAGA,Agusan del Norte,CARMEN,0,4,0,0,34,125.21324,9.08614
ES,131419,Dona Josefa Antillon ES,CARAGA,Agusan del Norte,CARMEN,0,2,0,0,23,125.2552,9.01942
ES,131420,Elpedio Salas Sr. ES,CARAGA,Agusan del Norte,CARMEN,0,1,0,0,16,125.2774436,8.9748559
ES,131421,Gosoon ES,CARAGA,Agusan del Norte,CARMEN,2,0,0,0,22,125.21917,9.07072
ES,131423,Rojales ES,CARAGA,Agusan del Norte,CARMEN,1,0,0,0,23,125.27684000000001,8.99302
ES,131424,San Agustin ES,CARAGA,Agusan del Norte,CARMEN,0,1,0,1,25,125.22347,9.05657
ES,131425,San Isidro ES,CARAGA,Agusan del Norte,CARMEN,0,1,0,0,19,125.2402192,8.9934203
ES,131426,Tagcatong Elementary School,CARAGA,Agusan del Norte,CARMEN,1,0,0,0,21,125.26416,8.99946
ES,131427,A. Beltran ES,CARAGA,Agusan del Norte,JABONGA,0,2,0,0,30,125.55767,9.37475
ES,131428,Baleguian ES,CARAGA,Agusan del Norte,JABONGA,0,0,0,0,28,125.55333,9.35722
ES,131429,BANGONAY CES,CARAGA,Agusan del Norte,JABONGA,1,0,0,1,26,125.5542612,9.3158478
ES,131430,Bunga ES,CARAGA,Agusan del Norte,JABONGA,0,3,0,0,22,125.49054,9.4336
ES,131431,Colorado ES,CARAGA,Agusan del Norte,JABONGA,0,1,0,0,26,125.52932,9.31836
ES,131432,Cuyago ES,CARAGA,Agusan del Norte,JABONGA,0,2,0,0,28,125.55217,9.34493
ES,131433,Jabonga Central Elementary School,CARAGA,Agusan del Norte,JABONGA,0,0,0,1,28,125.51584,9.34103
ES,131434,Libas Elementary School,CARAGA,Agusan del Norte,JABONGA,0,1,0,0,20,125.55115,9.30603
ES,131435,Juan L. Subrastas ES,CARAGA,Agusan del Norte,JABONGA,0,0,0,0,27,125.48449,9.35181
ES,131436,Magsaysay ES,CARAGA,Agusan del Norte,JABONGA,0,1,0,0,30,125.540006,9.3185963
ES,131437,Maraiging ES,CARAGA,Agusan del Norte,JABONGA,0,1,0,0,20,125.5723536,9.3668347
ES,131438,Narcisa M. Bermudez ES,CARAGA,Agusan del Norte,JABONGA,0,1,0,0,23,125.5248767,9.3104356
ES,131439,Petogo PS,CARAGA,Agusan del Norte,JABONGA,0,1,0,0,10,125.49683,9.31749
ES,131440,San Jose ES,CARAGA,Agusan del Norte,JABONGA,0,2,0,0,21,125.46881,9.37892
ES,131441,San Pablo ES,CARAGA,Agusan del Norte,JABONGA,1,0,0,0,21,125.50924,9.36987
ES,131442,San Vicente ES,CARAGA,Agusan del Norte,JABONGA,0,1,0,0,29,125.4642395,9.4062901
ES,131443,Sto. Nino ES,CARAGA,Agusan del Norte,JABONGA,0,1,0,0,20,125.49219,9.33186
ES,131444,Tagbuaya ES,CARAGA,Agusan del Norte,JABONGA,0,2,0,0,25,NA,NA
ES,131445,Bliss  Elementary School,CARAGA,Agusan del Norte,KITCHARAO,0,1,0,0,28,125.57955,9.45473
ES,131446,H.V. Dagani ES,CARAGA,Agusan del Norte,KITCHARAO,0,1,0,0,19,125.5588,9.3779
ES,131447,Hinimbangan ES,CARAGA,Agusan del Norte,KITCHARAO,0,0,0,0,13,125.6161791,9.4427436
ES,131448,Jaliobong Elementary School,CARAGA,Agusan del Norte,KITCHARAO,0,1,0,0,28,125.559951,9.4006417
ES,131449,Jose Bermudez ES,CARAGA,Agusan del Norte,KITCHARAO,0,0,0,0,20,125.58082,9.44241
ES,131450,Kitcharao CES,CARAGA,Agusan del Norte,KITCHARAO,5,0,0,0,25,125.57449,9.45535
ES,131451,Mahayahay ES,CARAGA,Agusan del Norte,KITCHARAO,0,1,0,0,26,125.58401,9.44531
ES,131452,P.C. Reyes ES,CARAGA,Agusan del Norte,KITCHARAO,0,1,0,0,27,125.556248,9.408758
ES,131453,San Isidro ES,CARAGA,Agusan del Norte,KITCHARAO,0,1,0,0,26,125.5698316,9.4091712
ES,131454,San Roque Elementary School,CARAGA,Agusan del Norte,KITCHARAO,2,0,0,0,20,125.55694,9.42228
ES,131455,Zapanta Valley PS,CARAGA,Agusan del Norte,KITCHARAO,0,1,0,0,21,125.6043566,9.3728996
ES,131481,Buhang ES,CARAGA,Agusan del Norte,MAGALLANES,4,0,0,0,24,125.52514,9.03542
ES,131482,Caloc-an ES,CARAGA,Agusan del Norte,MAGALLANES,1,0,0,0,22,125.5289,9.04544
ES,131483,Guiasan ES,CARAGA,Agusan del Norte,MAGALLANES,0,0,0,0,23,125.54476,9.00605
ES,131484,Magallanes North Elementary School,CARAGA,Agusan del Norte,MAGALLANES,2,0,0,0,22,125.51868,9.02596
ES,131485,Magallanes CES,CARAGA,Agusan del Norte,MAGALLANES,7,0,0,0,22,125.5177804,9.0193506
ES,131486,Milan ES,CARAGA,Agusan del Norte,MAGALLANES,0,1,0,0,18,125.55537,9.04493
ES,131487,New Townsite ES,CARAGA,Agusan del Norte,MAGALLANES,0,1,0,0,21,125.5224103,9.0187991
ES,131488,Pupotsan ES,CARAGA,Agusan del Norte,MAGALLANES,0,0,0,0,19,125.56077,9.02201
ES,131489,Sto. Nino ES,CARAGA,Agusan del Norte,MAGALLANES,0,0,0,0,16,125.51309,9.03056
ES,131490,Aclan Elementary School,CARAGA,Agusan del Norte,NASIPIT,0,0,0,0,21,125.308637,8.9906651
ES,131491,Amontay ES,CARAGA,Agusan del Norte,NASIPIT,1,0,0,0,22,125.3197521,8.9888212
ES,131492,Ata-Atahon ES,CARAGA,Agusan del Norte,NASIPIT,1,0,0,0,22,125.37344,8.98223
ES,131493,Camagong ES,CARAGA,Agusan del Norte,NASIPIT,0,2,0,0,29,125.336933,8.969257
ES,131494,Cubi-Cubi ES,CARAGA,Agusan del Norte,NASIPIT,0,1,0,0,28,125.38286,8.97587
ES,131495,Culit ES,CARAGA,Agusan del Norte,NASIPIT,1,0,0,0,23,125.3570813,8.9444698
ES,131497,Jaguimitan ES,CARAGA,Agusan del Norte,NASIPIT,1,0,0,0,27,125.3447411,8.9233414
ES,131498,Mateo B. Abao CES,CARAGA,Agusan del Norte,NASIPIT,4,0,0,0,20,125.36006,8.9742
ES,131499,Minbahandi ES,CARAGA,Agusan del Norte,NASIPIT,0,3,0,0,33,125.29146,8.86164
ES,131500,Nasipit CES,CARAGA,Agusan del Norte,NASIPIT,3,0,0,0,26,125.3439336,8.9845576
ES,131501,Punta ES,CARAGA,Agusan del Norte,NASIPIT,7,0,0,0,19,125.34955,8.99
ES,131502,Sta. Ana ES,CARAGA,Agusan del Norte,NASIPIT,0,2,0,0,26,125.32933,8.98631
ES,131503,Tagbabacon Elementary School,CARAGA,Agusan del Norte,NASIPIT,0,0,0,0,17,125.34534,8.92355
ES,131504,Talisay ES SPED Center,CARAGA,Agusan del Norte,NASIPIT,4,0,3,0,19,125.3396624,8.982282
ES,131505,Triangulo ES,CARAGA,Agusan del Norte,NASIPIT,1,0,0,0,22,125.3493959,8.9765072
ES,131506,Abilan ES,CARAGA,Agusan del Norte,BUENAVISTA,0,2,0,0,29,125.4664281,8.9685208
ES,131507,Agong-ong ES,CARAGA,Agusan del Norte,BUENAVISTA,0,1,0,0,25,125.38926,8.96325
ES,131508,Buenavista CES,CARAGA,Agusan del Norte,BUENAVISTA,0,4,0,0,30,125.41024,8.97601
ES,131510,Manapa I ES,CARAGA,Agusan del Norte,BUENAVISTA,0,4,0,0,35,125.442276,8.976903
ES,131512,Matabao Elementary School,CARAGA,Agusan del Norte,BUENAVISTA,0,1,0,0,29,125.4213,8.96765
ES,131513,Sacol ES,CARAGA,Agusan del Norte,BUENAVISTA,0,2,0,0,28,125.39961,8.98101
ES,131514,TINAGO ES,CARAGA,Agusan del Norte,BUENAVISTA,3,0,0,0,21,125.42199,8.9752
ES,131530,Balangbalang ES,CARAGA,Agusan del Norte,REMEDIOS T. ROMUALDEZ,0,2,0,0,28,125.62174,9.05451
ES,131531,Humilog ES,CARAGA,Agusan del Norte,REMEDIOS T. ROMUALDEZ,0,2,0,0,23,125.56912,9.05785
ES,131532,Luis B. Azura Sr. Memorial ES,CARAGA,Agusan del Norte,REMEDIOS T. ROMUALDEZ,3,0,0,0,21,125.58078,9.06635
ES,131533,Panaytayon ES,CARAGA,Agusan del Norte,REMEDIOS T. ROMUALDEZ,4,0,0,0,5,125.57264,9.03843
ES,131534,RT Romualdez CES,CARAGA,Agusan del Norte,REMEDIOS T. ROMUALDEZ,5,0,0,1,23,125.58548,9.05196
ES,131535,San Antonio ES,CARAGA,Agusan del Norte,REMEDIOS T. ROMUALDEZ,0,0,0,0,23,125.64156,9.05822
ES,131536,Tagbongabong ES,CARAGA,Agusan del Norte,REMEDIOS T. ROMUALDEZ,2,0,0,1,24,125.6149,9.07947
ES,131537,Dona Telesfora L. Ong Oh ES,CARAGA,Agusan del Norte,SANTIAGO,0,3,0,0,28,125.56459,9.23019
ES,131538,Jagupit ES,CARAGA,Agusan del Norte,SANTIAGO,1,0,0,0,22,125.55742,9.24226
ES,131539,Jose L. Ong Oh Jr. ES,CARAGA,Agusan del Norte,SANTIAGO,0,2,0,0,29,125.55567,9.24874
ES,131540,Kauswagan de Oro ES,CARAGA,Agusan del Norte,SANTIAGO,0,2,0,0,33,125.53464,9.28112
ES,131541,La Paz ES,CARAGA,Agusan del Norte,SANTIAGO,0,0,0,0,28,125.5477446,9.2609839
ES,131542,Monte De Oro Elementary School,CARAGA,Agusan del Norte,SANTIAGO,0,1,0,0,20,125.6246656,9.2740339
ES,131543,Monte Grande ES,CARAGA,Agusan del Norte,SANTIAGO,0,2,0,0,27,125.63323,9.25476
ES,131544,Cadahondahonan ES,CARAGA,Agusan del Norte,SANTIAGO,0,1,0,0,18,125.5763438,9.2887241
ES,131545,Prospero D. Salas ES,CARAGA,Agusan del Norte,SANTIAGO,0,4,0,0,38,125.5482524,9.2926164
ES,131546,Santiago CES,CARAGA,Agusan del Norte,SANTIAGO,0,6,0,0,32,125.56024,9.263
ES,131547,Villa Serrano ES,CARAGA,Agusan del Norte,SANTIAGO,0,1,0,0,24,125.57793,9.26551
ES,131549,Bagang ES,CARAGA,Agusan del Norte,BUENAVISTA,0,1,0,0,25,125.39908,8.80685
ES,131550,Cogon Central Elementary School,CARAGA,Agusan del Norte,BUENAVISTA,3,0,0,0,22,125.4080982,8.9684181
ES,131551,Dalao-an ES,CARAGA,Agusan del Norte,BUENAVISTA,0,2,0,0,18,125.41527,8.91412
ES,131552,Kabalalahan ES,CARAGA,Agusan del Norte,BUENAVISTA,0,1,0,0,32,125.42172,8.88114
ES,131553,Labong Elementary School,CARAGA,Agusan del Norte,BUENAVISTA,0,3,0,0,25,125.4137,8.79724
ES,131554,Lekda Elementary School,CARAGA,Agusan del Norte,BUENAVISTA,0,4,0,0,34,125.414508,8.767164
ES,131555,Linao-Linao ES,CARAGA,Agusan del Norte,BUENAVISTA,0,1,0,0,26,NA,NA
ES,131556,Lomboyan ES,CARAGA,Agusan del Norte,BUENAVISTA,1,0,0,0,22,125.38054,8.94925
ES,131557,Lower Olave ES,CARAGA,Agusan del Norte,BUENAVISTA,0,0,0,0,20,125.447031,8.825719
ES,131558,Macalang ES,CARAGA,Agusan del Norte,BUENAVISTA,0,3,0,0,35,125.4501,8.949
ES,131559,Malapong ES,CARAGA,Agusan del Norte,BUENAVISTA,0,4,0,0,40,125.42315,8.94124
ES,131560,Malpoc ES,CARAGA,Agusan del Norte,BUENAVISTA,0,0,0,0,24,125.39915,8.94897
ES,131561,Manlangit ES,CARAGA,Agusan del Norte,BUENAVISTA,0,1,0,0,19,125.45425,8.92278
ES,131562,Monteverde Elementary School,CARAGA,Agusan del Norte,BUENAVISTA,0,0,0,0,17,125.46926,8.80239
ES,131563,New Bohol ES,CARAGA,Agusan del Norte,BUENAVISTA,0,1,0,0,20,125.4426633,8.8746834
ES,131564,Olave ES,CARAGA,Agusan del Norte,BUENAVISTA,0,2,0,0,24,125.4601,8.8208
ES,131565,RIZAL CES,CARAGA,Agusan del Norte,BUENAVISTA,0,1,0,0,25,125.39899,8.93105
ES,131566,San Roque ES,CARAGA,Agusan del Norte,BUENAVISTA,0,3,0,0,22,125.41724,8.85011
ES,131567,Sangay ES,CARAGA,Agusan del Norte,BUENAVISTA,0,0,0,0,25,125.430787,8.86646
ES,131568,Simbalan Central ES,CARAGA,Agusan del Norte,BUENAVISTA,3,0,0,0,20,125.4383,8.81556
ES,131569,Talo-ao ES,CARAGA,Agusan del Norte,BUENAVISTA,0,2,0,0,33,125.4249269,8.95165
ES,131570,Tanutao ES,CARAGA,Agusan del Norte,BUENAVISTA,0,0,0,0,26,125.402804,8.9056649
ES,131571,Tapnigue ES,CARAGA,Agusan del Norte,BUENAVISTA,0,1,0,0,21,125.44962,8.85975
ES,131581,Beto ES,CARAGA,Agusan del Norte,TUBAY,0,0,0,0,23,125.547,9.151
ES,131582,Binuangan ES,CARAGA,Agusan del Norte,TUBAY,1,0,0,0,28,125.52413,9.21834
ES,131583,Cabayawa ES,CARAGA,Agusan del Norte,TUBAY,0,0,0,0,25,125.5248463,9.1400627
ES,131584,Dona Rosario Central Elem. School,CARAGA,Agusan del Norte,TUBAY,0,0,0,0,24,125.56069,9.15761
ES,131585,DOÑA TELESFORA ES,CARAGA,Agusan del Norte,TUBAY,0,5,0,0,35,125.57758,9.19607
ES,131586,La Fraternidad ES,CARAGA,Agusan del Norte,TUBAY,0,4,0,0,29,125.54184,9.16169
ES,131587,Lawigan ES,CARAGA,Agusan del Norte,TUBAY,0,2,0,0,20,125.50413,9.30277
ES,131588,RAM Elementary School,CARAGA,Agusan del Norte,TUBAY,0,0,0,0,14,125.6233641,9.2070548
ES,131589,Sta. Ana ES,CARAGA,Agusan del Norte,TUBAY,0,6,0,0,40,125.5634749,9.1937526
ES,131590,Tagmamarkay ES,CARAGA,Agusan del Norte,TUBAY,1,0,0,0,26,125.56506,9.21468
ES,131591,Tagpangahoy ES,CARAGA,Agusan del Norte,TUBAY,1,0,0,0,16,125.51505,9.23615
ES,131592,Tinigbasan ES,CARAGA,Agusan del Norte,TUBAY,1,0,0,0,18,125.5112,9.26652
ES,131593,Tubay Central Elementary School,CARAGA,Agusan del Norte,TUBAY,0,5,0,0,31,125.52463,9.16702
ES,131594,Victory ES,CARAGA,Agusan del Norte,TUBAY,0,0,0,0,25,125.5589563,9.148813
ES,211501,Tabon Elementary School,CARAGA,Agusan del Norte,NASIPIT,1,0,0,0,17,125.29734,8.95851
ES,211503,Cabayugan ES,CARAGA,Agusan del Norte,BUENAVISTA,0,2,0,0,25,125.44374,8.81549
ES,211504,Dahikan ES,CARAGA,Agusan del Norte,MAGALLANES,0,0,0,0,24,125.53439,9.06345
ES,211506,Datu Saldong Domino ES,CARAGA,Agusan del Norte,BUENAVISTA,0,2,0,0,22,125.393367,8.775982
ES,211507,San Juan ES,CARAGA,Agusan del Norte,BUENAVISTA,0,0,0,0,21,125.46455,8.98511
ES,211508,Mangumihay ES,CARAGA,Agusan del Norte,NASIPIT,0,0,0,0,12,125.30945,8.85522
ES,211509,Eliseo G. Alipao Elementary School,CARAGA,Agusan del Norte,REMEDIOS T. ROMUALDEZ,0,0,0,0,15,125.56611,9.06682
ES,211510,Poblacion Doz ES,CARAGA,Agusan del Norte,REMEDIOS T. ROMUALDEZ,0,1,0,0,20,125.60478,9.06267
ES,211511,Calayagon ES,CARAGA,Agusan del Norte,BUENAVISTA,0,4,0,0,28,125.38816,8.94989
ES,500047,Buenavista SPED Elementary School,CARAGA,Agusan del Norte,BUENAVISTA,0,6,11,0,22,125.40853,8.97617
ES,500049,Manapa CES,CARAGA,Agusan del Norte,BUENAVISTA,5,0,0,0,18,125.44915,8.98076
ES,500311,Manoligao Elementary School,CARAGA,Agusan del Norte,CARMEN,0,0,0,0,27,125.25001,8.95951
ES,500313,F.S. Omayana Elementary School,CARAGA,Agusan del Norte,BUENAVISTA,0,4,0,0,34,125.458143,8.9502847
ES,500314,Hinandayan Elementary School,CARAGA,Agusan del Norte,NASIPIT,0,1,0,0,28,125.29336,8.9093
ES,131666,Agsabo Elementary School,CARAGA,Agusan del Sur,ESPERANZA,0,2,0,0,31,NA,NA
ES,131667,Bakingking Elementary School,CARAGA,Agusan del Sur,ESPERANZA,0,0,0,0,16,125.52548,8.677928
ES,131670,Bunaguit Elementary School,CARAGA,Agusan del Sur,ESPERANZA,0,0,0,0,26,125.4762051,8.6138897
ES,131671,Calabuan Elementary School,CARAGA,Agusan del Sur,ESPERANZA,0,3,0,0,23,NA,NA
ES,131672,Dakutan Central Elementary School,CARAGA,Agusan del Sur,ESPERANZA,2,0,0,1,24,125.6827574,8.6655145
ES,131673,ESPERANZA CENTRAL ELEMENTARY SCHOOL,CARAGA,Agusan del Sur,ESPERANZA,0,0,0,1,26,125.6487712,8.6759023
ES,131674,Guibonon Elementary School,CARAGA,Agusan del Sur,ESPERANZA,0,0,0,0,13,125.3480161,8.6124365
ES,131675,Hawilian ES,CARAGA,Agusan del Sur,ESPERANZA,0,1,0,0,27,125.3819,8.4014
ES,131676,Imelda ES,CARAGA,Agusan del Sur,ESPERANZA,0,1,0,0,18,125.693958,8.688051
ES,131677,Juan Luna ES,CARAGA,Agusan del Sur,ESPERANZA,0,3,0,0,32,125.6972578,8.6735328
ES,131678,Kinamaybay Elementary School,CARAGA,Agusan del Sur,ESPERANZA,2,0,0,0,21,125.361881,8.665936
ES,131679,Kubo ES,CARAGA,Agusan del Sur,ESPERANZA,0,0,0,0,19,125.6511172,8.6924219
ES,131680,Langag ES,CARAGA,Agusan del Sur,ESPERANZA,0,1,0,0,23,125.694,8.6677
ES,131682,Milagros ES,CARAGA,Agusan del Sur,ESPERANZA,0,1,0,0,29,125.581441,8.6373005
ES,131683,New Gingoog ES,CARAGA,Agusan del Sur,ESPERANZA,0,2,0,0,23,125.5866105,8.6821768
ES,131685,Jose Calo Agudo ES,CARAGA,Agusan del Sur,ESPERANZA,0,2,0,1,26,125.663474,8.6660766
ES,131686,Remedios ES,CARAGA,Agusan del Sur,ESPERANZA,0,0,0,0,27,125.609733,8.6656232
ES,131687,Salug ES,CARAGA,Agusan del Sur,ESPERANZA,0,3,0,0,28,125.4119836,8.6071496
ES,131688,San Isidro ES,CARAGA,Agusan del Sur,ESPERANZA,0,1,0,0,22,125.68,8.67
ES,131689,SAN JOSE ELEMENTARY SCHOOL,CARAGA,Agusan del Sur,ESPERANZA,0,1,0,0,19,NA,NA
ES,131690,San Vicente PS,CARAGA,Agusan del Sur,ESPERANZA,0,2,0,0,21,125.4056507,8.4891067
ES,131691,Sinakungan Elementary School,CARAGA,Agusan del Sur,ESPERANZA,0,0,0,0,14,125.3821957,8.5830339
ES,131692,Skyline Elementary School,CARAGA,Agusan del Sur,ESPERANZA,0,1,0,0,21,125.5835577,8.6642523
ES,131693,Sta Fe Elementary School,CARAGA,Agusan del Sur,ESPERANZA,0,1,0,0,27,125.6895104,8.6271812
ES,131694,Tag-anahaw Elementary School,CARAGA,Agusan del Sur,ESPERANZA,1,0,0,0,13,NA,NA
ES,131695,Tagbalili Elementary School,CARAGA,Agusan del Sur,ESPERANZA,0,0,0,0,26,NA,NA
ES,131697,Batac Elementary School,CARAGA,Agusan del Sur,ESPERANZA,0,1,0,0,13,125.7393892,8.6513229
ES,131698,Casanaag Elementary School,CARAGA,Agusan del Sur,ESPERANZA,0,0,0,0,19,125.7145952,8.6034622
ES,131699,Catmonon Elementary School,CARAGA,Agusan del Sur,ESPERANZA,3,0,0,0,20,NA,NA
ES,131700,Cebulan Elementary School,CARAGA,Agusan del Sur,ESPERANZA,1,0,0,0,15,125.7625409,8.6282843
ES,131701,Concordia Elemenrary School,CARAGA,Agusan del Sur,ESPERANZA,0,1,0,0,17,125.6767648,8.6163042
ES,131702,Duangan ES,CARAGA,Agusan del Sur,ESPERANZA,0,3,0,0,34,125.7295775,8.6119698
ES,131703,Guadalupe CES,CARAGA,Agusan del Sur,ESPERANZA,0,2,0,0,29,125.710389,8.5816194
ES,131704,Labao Elementary School,CARAGA,Agusan del Sur,ESPERANZA,0,0,0,0,21,125.713934,8.62688
ES,131705,Maliwanag ES,CARAGA,Agusan del Sur,ESPERANZA,0,0,0,0,10,NA,NA
ES,131706,Datu Mankumbate Elementary School,CARAGA,Agusan del Sur,ESPERANZA,0,1,0,0,9,125.7422669,8.5859902
ES,131707,Nato ES,CARAGA,Agusan del Sur,ESPERANZA,0,0,4,0,20,122.7878782,12.3608832
ES,131708,Odiong Elementary School,CARAGA,Agusan del Sur,ESPERANZA,0,0,0,0,22,NA,NA
ES,131709,Oro ES,CARAGA,Agusan del Sur,ESPERANZA,1,0,0,0,23,125.6698153,8.5901571
ES,131710,Makalindang PS,CARAGA,Agusan del Sur,ESPERANZA,0,2,0,0,24,125.7517058,8.5929452
ES,131711,San Toribio ES,CARAGA,Agusan del Sur,ESPERANZA,0,0,0,0,25,NA,NA
ES,131712,Segunda ES,CARAGA,Agusan del Sur,ESPERANZA,0,0,0,0,19,125.5265182,8.5520689
ES,131713,Tahina Elementary School,CARAGA,Agusan del Sur,ESPERANZA,0,1,0,0,31,125.6626851,8.6106396
ES,131714,Tandang Sora Elementary School,CARAGA,Agusan del Sur,ESPERANZA,0,0,0,0,15,125.7117521,8.4241495
ES,131730,Loreto Central Elem School,CARAGA,Agusan del Sur,LORETO,3,0,0,1,26,NA,NA
ES,131771,Asuncion Elementary School,CARAGA,Agusan del Sur,PROSPERIDAD (Capital),0,1,0,0,24,NA,NA
ES,131772,Aurora Elementary School,CARAGA,Agusan del Sur,PROSPERIDAD (Capital),0,2,0,0,26,125.8398056,8.5902442
ES,131773,Bagnan Elementary School,CARAGA,Agusan del Sur,PROSPERIDAD (Capital),0,0,0,0,19,125.8473355,8.5766545
ES,131774,Cordova Elementary School,CARAGA,Agusan del Sur,PROSPERIDAD (Capital),0,1,0,0,20,125.8989614,8.5452192
ES,131775,East Prosperidad Central Elementary School,CARAGA,Agusan del Sur,PROSPERIDAD (Capital),10,0,0,1,25,NA,NA
ES,131776,La Caridad ES,CARAGA,Agusan del Sur,PROSPERIDAD (Capital),0,2,0,0,27,125.9109163,8.5333573
ES,131777,La Fortuna Eementary School,CARAGA,Agusan del Sur,PROSPERIDAD (Capital),0,1,0,0,18,125.9091019,8.5605715
ES,131778,Las Navas ES,CARAGA,Agusan del Sur,PROSPERIDAD (Capital),2,0,0,0,13,125.908136,8.560417
ES,131779,Lucena ES,CARAGA,Agusan del Sur,PROSPERIDAD (Capital),4,0,0,1,23,125.8740402,8.5670958
ES,131780,Mapaga  Elementary School,CARAGA,Agusan del Sur,PROSPERIDAD (Capital),0,1,0,0,28,125.8855343,8.5933914
ES,131781,New Visayas ES,CARAGA,Agusan del Sur,PROSPERIDAD (Capital),0,0,0,0,21,125.8165026,8.5624066
ES,131782,Pakwan ES,CARAGA,Agusan del Sur,PROSPERIDAD (Capital),0,1,0,0,30,NA,NA
ES,131783,San Agustin ES,CARAGA,Agusan del Sur,PROSPERIDAD (Capital),0,1,0,0,16,NA,NA
ES,131784,San Jose ES,CARAGA,Agusan del Sur,PROSPERIDAD (Capital),0,3,0,0,31,NA,NA
ES,131786,SAN RAFAEL ES,CARAGA,Agusan del Sur,PROSPERIDAD (Capital),0,1,0,0,26,125.8475921,8.5163702
ES,131787,San Roque ES,CARAGA,Agusan del Sur,PROSPERIDAD (Capital),0,2,0,0,22,125.8315015,8.5451236
ES,131788,San Vicente ES,CARAGA,Agusan del Sur,PROSPERIDAD (Capital),2,0,0,0,22,125.8547187,8.540657
ES,131789,West Prosperidad Central Elementary School,CARAGA,Agusan del Sur,PROSPERIDAD (Capital),0,1,0,0,29,125.8988102,8.5767818
ES,131790,Awa Elementary School,CARAGA,Agusan del Sur,PROSPERIDAD (Capital),0,1,0,0,26,NA,NA
ES,131791,Azpetia Elementary  School,CARAGA,Agusan del Sur,PROSPERIDAD (Capital),0,1,0,0,24,125.9445977,8.6386517
ES,131792,Dona Rosario ES,CARAGA,Agusan del Sur,PROSPERIDAD (Capital),0,3,0,0,36,125.90478,8.65016
ES,131796,La Purisima Elementary School,CARAGA,Agusan del Sur,PROSPERIDAD (Capital),0,4,0,0,32,125.8964307,8.6896603
ES,131797,Libertad ES,CARAGA,Agusan del Sur,PROSPERIDAD (Capital),0,0,0,0,20,125.9603,8.6562
ES,131798,Los Arcos ES,CARAGA,Agusan del Sur,PROSPERIDAD (Capital),0,1,0,0,28,125.98966,8.63394
ES,131799,Mabuhay ES,CARAGA,Agusan del Sur,PROSPERIDAD (Capital),0,2,0,0,26,125.9553414,8.673045
ES,131800,Magsaysay ES,CARAGA,Agusan del Sur,PROSPERIDAD (Capital),0,2,0,0,30,126.0086189,8.6307135
ES,131801,Mikit ES,CARAGA,Agusan del Sur,PROSPERIDAD (Capital),1,0,0,0,19,NA,NA
ES,131802,New Maasin ES,CARAGA,Agusan del Sur,PROSPERIDAD (Capital),2,0,0,0,12,125.920188,8.6801404
ES,131803,New Maug Elementary School,CARAGA,Agusan del Sur,PROSPERIDAD (Capital),1,0,0,0,26,114.0027398,20.9986449
ES,131804,Patin-ay CES,CARAGA,Agusan del Sur,PROSPERIDAD (Capital),0,1,0,1,31,125.939291,8.55095
ES,131805,Salimbogaon ES,CARAGA,Agusan del Sur,PROSPERIDAD (Capital),1,0,0,0,15,125.94574,8.64869
ES,131806,Salvacion ES,CARAGA,Agusan del Sur,PROSPERIDAD (Capital),3,0,0,0,22,125.9259152,8.5829732
ES,131807,San Lorenzo ES,CARAGA,Agusan del Sur,PROSPERIDAD (Capital),0,1,0,0,27,126.0033573,8.669982
ES,131808,San Martin ES,CARAGA,Agusan del Sur,PROSPERIDAD (Capital),0,0,0,0,20,125.9281328,8.6595219
ES,131809,Sta Irene Central ES,CARAGA,Agusan del Sur,PROSPERIDAD (Capital),5,0,0,0,25,NA,NA
ES,131810,Sta. Maria Elementary School,CARAGA,Agusan del Sur,PROSPERIDAD (Capital),0,0,0,0,24,NA,NA
ES,131811,Taonaga Elementary School,CARAGA,Agusan del Sur,PROSPERIDAD (Capital),0,1,0,0,21,125.8883171,8.5797524
ES,131861,Afga Central Elementary School,CARAGA,Agusan del Sur,SIBAGAT,4,0,8,0,17,125.6570269,8.8724579
ES,131862,Anahawan Elementary School,CARAGA,Agusan del Sur,SIBAGAT,0,1,0,0,18,NA,NA
ES,131864,Banag-banag Elementary School,CARAGA,Agusan del Sur,SIBAGAT,0,0,0,0,16,NA,NA
ES,131865,Causwagan Elementary School,CARAGA,Agusan del Sur,SIBAGAT,0,0,0,0,18,125.682823,8.8045386
ES,131866,Dandanon Elementary School,CARAGA,Agusan del Sur,SIBAGAT,0,1,0,0,21,125.73141,8.991623
ES,131867,Del Rosario Elementary School,CARAGA,Agusan del Sur,SIBAGAT,0,2,0,0,21,NA,NA
ES,131868,El Rio ES,CARAGA,Agusan del Sur,SIBAGAT,2,0,0,0,23,125.671829,8.860268
ES,131870,Ilihan ES,CARAGA,Agusan del Sur,SIBAGAT,2,0,0,0,18,NA,NA
ES,131871,Keoya ES,CARAGA,Agusan del Sur,SIBAGAT,0,1,0,0,19,NA,NA
ES,131872,Kolambugan ES,CARAGA,Agusan del Sur,SIBAGAT,0,0,0,0,26,125.7306596,8.9896519
ES,131874,Magkalape ES,CARAGA,Agusan del Sur,SIBAGAT,0,2,0,0,14,125.7006454,8.9062801
ES,131875,Magsaysay ES,CARAGA,Agusan del Sur,SIBAGAT,3,0,0,0,12,125.7368378,8.8998631
ES,131876,Mahayahay ES,CARAGA,Agusan del Sur,SIBAGAT,0,0,0,0,22,125.6849121,8.8413766
ES,131878,New Tubigon ES,CARAGA,Agusan del Sur,SIBAGAT,0,3,0,0,32,125.825407,8.8860126
ES,131879,Padiay ES,CARAGA,Agusan del Sur,SIBAGAT,0,0,0,0,18,125.7411389,8.9688175
ES,131881,Perez ES,CARAGA,Agusan del Sur,SIBAGAT,0,0,0,0,18,125.7336045,8.9356182
ES,131882,San Isidro I ES,CARAGA,Agusan del Sur,SIBAGAT,0,0,0,0,21,125.6435102,8.8715038
ES,131883,San Isidro II ES,CARAGA,Agusan del Sur,SIBAGAT,0,1,0,0,20,125.6434947,8.8715563
ES,131884,San Roque ES,CARAGA,Agusan del Sur,SIBAGAT,0,0,0,0,14,NA,NA
ES,131885,San Vicente ES,CARAGA,Agusan del Sur,SIBAGAT,0,0,0,0,22,NA,NA
ES,131886,Sinai ES,CARAGA,Agusan del Sur,SIBAGAT,0,1,0,0,17,NA,NA
ES,131887,Sibagat CES,CARAGA,Agusan del Sur,SIBAGAT,0,31,0,2,124,NA,NA
ES,131888,Sta. Cruz Elementary School,CARAGA,Agusan del Sur,SIBAGAT,3,0,0,0,10,125.7902956,8.9658501
ES,131889,Sta. Maria Elementary School,CARAGA,Agusan del Sur,SIBAGAT,0,0,0,0,17,125.7000023,8.8166832
ES,131890,Tabontabon Elementary School,CARAGA,Agusan del Sur,SIBAGAT,2,0,0,0,26,125.6584118,8.9014102
ES,131891,Tag-oyango Elementary School,CARAGA,Agusan del Sur,SIBAGAT,0,0,0,0,21,125.6797924,8.7947284
ES,131892,Villangit Elementary School,CARAGA,Agusan del Sur,SIBAGAT,1,0,0,0,17,125.730772,8.8573979
ES,131936,Anislagan Elementary School,CARAGA,Agusan del Sur,SAN LUIS,1,0,0,0,24,125.7989142,8.5980732
ES,131937,DOP BALIT IP School (IPA),CARAGA,Agusan del Sur,SAN LUIS,0,1,0,0,28,NA,NA
ES,131939,Baylo Elementary School,CARAGA,Agusan del Sur,SAN LUIS,1,0,0,0,17,125.7319738,8.4457478
ES,131940,Cecilia Elementary School,CARAGA,Agusan del Sur,SAN LUIS,0,0,0,1,26,125.7829535,8.5557651
ES,131942,Culi Elementary School,CARAGA,Agusan del Sur,SAN LUIS,0,0,0,0,20,125.7651754,8.4982969
ES,131943,Datu Bandahan Elementary School,CARAGA,Agusan del Sur,SAN LUIS,0,0,0,0,15,NA,NA
ES,131944,Datu Sandigan Elementary School,CARAGA,Agusan del Sur,SAN LUIS,0,0,0,0,14,125.6915545,8.4071423
ES,131945,Dimasalang Elementary School,CARAGA,Agusan del Sur,SAN LUIS,1,0,0,0,24,125.718509,8.5468955
ES,131946,Don Pedro PS,CARAGA,Agusan del Sur,SAN LUIS,0,1,0,0,9,125.4702757,8.4049748
ES,131947,Dona Maxima ES,CARAGA,Agusan del Sur,SAN LUIS,0,1,0,0,31,125.7448025,8.4770031
ES,131951,Kalilid ES,CARAGA,Agusan del Sur,SAN LUIS,3,0,0,0,24,125.7353654,8.4950319
ES,131953,Laminga Central Elementary School,CARAGA,Agusan del Sur,SAN LUIS,1,0,0,0,23,125.7667749,8.4725987
ES,131954,Mahagsay ES,CARAGA,Agusan del Sur,SAN LUIS,0,2,0,0,28,125.5081572,8.4824575
ES,131955,Mahapag ES,CARAGA,Agusan del Sur,SAN LUIS,0,0,0,0,20,125.7630336,8.5632235
ES,131956,Mahayahay ES,CARAGA,Agusan del Sur,SAN LUIS,0,2,0,0,38,125.5985337,8.3835529
ES,131957,Muritula ES,CARAGA,Agusan del Sur,SAN LUIS,0,0,0,0,25,125.7601522,8.5259726
ES,131958,Nuevo Trabajo ES,CARAGA,Agusan del Sur,SAN LUIS,0,5,0,0,36,125.7200577,8.5055411
ES,131959,Olangoan ES,CARAGA,Agusan del Sur,SAN LUIS,0,3,0,0,33,NA,NA
ES,131960,Policarpo ES,CARAGA,Agusan del Sur,SAN LUIS,0,4,0,0,37,125.6558919,8.4735054
ES,131961,San Jose ES,CARAGA,Agusan del Sur,SAN LUIS,0,4,0,0,31,NA,NA
ES,131962,San Luis CES,CARAGA,Agusan del Sur,SAN LUIS,1,0,0,0,23,NA,NA
ES,131963,San Mariano ES,CARAGA,Agusan del Sur,SAN LUIS,1,0,0,0,15,125.7817827,8.5373149
ES,131964,San Pedro ES,CARAGA,Agusan del Sur,SAN LUIS,4,0,0,0,21,125.7068253,8.4491359
ES,131965,Santiago ES,CARAGA,Agusan del Sur,SAN LUIS,0,0,0,0,16,125.7520761,8.5604226
ES,131966,Sta. Ines Elementary School,CARAGA,Agusan del Sur,SAN LUIS,0,2,0,0,31,125.7269746,8.5216259
ES,131968,Tambo Elementary School,CARAGA,Agusan del Sur,SAN LUIS,0,2,0,0,27,125.525678,8.3752879
ES,131969,Wegguam Elementary School,CARAGA,Agusan del Sur,SAN LUIS,2,0,0,0,13,125.7640686,8.5853855
ES,131970,Buena Gracia Elementary School,CARAGA,Agusan del Sur,TALACOGON,0,0,0,0,27,125.8021788,8.4197355
ES,131971,Causwagan Elementary School,CARAGA,Agusan del Sur,TALACOGON,0,0,0,0,24,125.8414493,8.4470028
ES,131972,Cebuna Elementary School,CARAGA,Agusan del Sur,TALACOGON,4,0,0,0,5,NA,NA
ES,131973,Concillo Elementary  School,CARAGA,Agusan del Sur,TALACOGON,0,0,0,0,12,125.8201361,8.5152596
ES,131974,Corpuz Elementary School,CARAGA,Agusan del Sur,TALACOGON,3,0,0,0,12,125.8113241,8.5044914
ES,131975,Cortes Elementary School,CARAGA,Agusan del Sur,TALACOGON,1,0,0,0,13,125.820329,8.477232
ES,131976,Culi-Ram Elementary School,CARAGA,Agusan del Sur,TALACOGON,0,1,0,0,17,125.7802606,8.4903422
ES,131977,Del Monte Central Elementary School,CARAGA,Agusan del Sur,TALACOGON,4,0,0,0,24,125.8436304,8.491507
ES,131978,Desamparados Elementary School,CARAGA,Agusan del Sur,TALACOGON,0,5,0,0,49,125.8336763,9.2883611
ES,131979,Don Flaviano Elementary School,CARAGA,Agusan del Sur,TALACOGON,0,1,0,0,18,NA,NA
ES,131980,F.E. Lopez ES,CARAGA,Agusan del Sur,TALACOGON,1,0,0,0,23,125.8373487,8.4654321
ES,131981,Kabakahan ES,CARAGA,Agusan del Sur,TALACOGON,0,0,0,0,20,125.7442237,8.4107504
ES,131982,Kasilayan Elementary School,CARAGA,Agusan del Sur,TALACOGON,0,1,0,0,19,125.7096863,8.4176489
ES,131983,La Flora Elementary School,CARAGA,Agusan del Sur,TALACOGON,0,1,0,0,28,125.8183372,8.3949134
ES,131984,Labnig ES,CARAGA,Agusan del Sur,TALACOGON,1,0,0,0,23,125.8017775,8.4513403
ES,131985,Mabini ES,CARAGA,Agusan del Sur,TALACOGON,0,0,0,0,12,125.8337689,8.5125295
ES,131987,Marbon ES,CARAGA,Agusan del Sur,TALACOGON,0,4,0,0,33,NA,NA
ES,131988,New Davao ES,CARAGA,Agusan del Sur,TALACOGON,0,2,0,0,19,NA,NA
ES,131989,Sabang Gibong ES,CARAGA,Agusan del Sur,TALACOGON,1,0,0,0,14,125.888257,8.3266324
ES,131991,Talacogon Central Elementary School SPED Center,CARAGA,Agusan del Sur,TALACOGON,0,5,2,0,29,125.7870303,8.4481667
ES,131992,Tuburan Elementary School,CARAGA,Agusan del Sur,TALACOGON,0,1,0,0,14,125.8111601,8.504551
ES,131993,Unsayawon Elementary School,CARAGA,Agusan del Sur,TALACOGON,0,2,0,0,32,125.8207842,8.4516015
ES,131994,Zamora Elementary School,CARAGA,Agusan del Sur,TALACOGON,0,0,0,0,18,125.794478,8.466502
ES,131995,Zillovia Elementary School,CARAGA,Agusan del Sur,TALACOGON,0,7,0,0,36,NA,NA
ES,136973,Bagumbayan IP Elementary School,CARAGA,Agusan del Sur,SIBAGAT,0,0,0,0,10,NA,NA
ES,136974,Bayabas Elementary School,CARAGA,Agusan del Sur,SIBAGAT,0,0,0,0,8,NA,NA
ES,136978,Datu Dapunutan Elementary School,CARAGA,Agusan del Sur,SAN LUIS,0,2,0,0,13,NA,NA
ES,136979,Datu Talakasan Elementary School,CARAGA,Agusan del Sur,SAN LUIS,1,0,0,0,0,NA,NA
ES,136980,Diego Gaud Elementary School,CARAGA,Agusan del Sur,SAN LUIS,0,3,0,0,35,125.7056816,8.5100634
ES,136982,Gisaw-an Elementary School,CARAGA,Agusan del Sur,SAN LUIS,0,4,0,0,38,125.5186754,8.3427746
ES,136984,Inabucayan Elementary School,CARAGA,Agusan del Sur,SAN LUIS,0,0,0,0,5,125.7530473,8.5545692
ES,136989,Lugin-asan Elementary School,CARAGA,Agusan del Sur,SAN LUIS,0,2,0,0,32,125.5082924,8.4866702
ES,136991,Malatado Elementary School,CARAGA,Agusan del Sur,SAN LUIS,0,3,0,0,55,125.490532,8.3318265
ES,136992,New Paradise Elementary School,CARAGA,Agusan del Sur,SAN LUIS,0,1,0,0,16,119.2550707,14.0679826
ES,136994,Pañas Elementary School,CARAGA,Agusan del Sur,SIBAGAT,0,0,0,0,8,NA,NA
ES,136995,Salimahan IP School,CARAGA,Agusan del Sur,ESPERANZA,0,1,0,0,25,125.5033439,8.6325231
ES,136996,Sindungan Elementary School,CARAGA,Agusan del Sur,TALACOGON,0,2,0,0,22,125.7804966,8.4452716
ES,136998,Tagpangi Elementary School,CARAGA,Agusan del Sur,SAN LUIS,0,3,0,0,34,125.5205913,8.3338046
ES,136999,Talaandig IP Elementary School,CARAGA,Agusan del Sur,TALACOGON,0,1,0,0,23,125.737288,8.4231842
ES,212001,Aguinaldo Elementary School,CARAGA,Agusan del Sur,ESPERANZA,0,3,0,0,26,NA,NA
ES,212002,La Suerte ES,CARAGA,Agusan del Sur,PROSPERIDAD (Capital),0,0,0,1,25,NA,NA
ES,212007,Valentina Elementary School,CARAGA,Agusan del Sur,ESPERANZA,0,1,0,0,23,125.7484531,8.571297
ES,212011,Kahusayan ES,CARAGA,Agusan del Sur,ESPERANZA,1,0,0,0,14,125.66075,8.68388
ES,212019,Puting Buhangin ES,CARAGA,Agusan del Sur,PROSPERIDAD (Capital),2,0,0,0,12,125.9319509,8.6065738
ES,212020,Bantolinao Elementary School,CARAGA,Agusan del Sur,SIBAGAT,0,2,0,0,34,125.7635011,8.9787124
ES,212026,Balonbon Elementary School,CARAGA,Agusan del Sur,SIBAGAT,0,1,0,0,15,NA,NA
ES,212051,"Jose T. Cuyos, Sr. I PS",CARAGA,Agusan del Sur,ROSARIO,0,2,0,0,31,126.0200447,8.3607353
ES,212059,San Isidro Elementary School,CARAGA,Agusan del Sur,TALACOGON,0,0,0,0,16,125.7910871,8.4516688
ES,212060,San Roque Elementary School,CARAGA,Agusan del Sur,TALACOGON,2,0,0,0,13,NA,NA
ES,212062,Tumalog Elementary School,CARAGA,Agusan del Sur,TALACOGON,1,0,0,0,13,125.6456319,8.504017
ES,212068,DOP Sta. Rita IP School (IPA),CARAGA,Agusan del Sur,SAN LUIS,0,3,0,0,26,125.5701532,8.4725144
ES,212072,DOP KIBUKAY IP SCHOOL (IPA),CARAGA,Agusan del Sur,ESPERANZA,0,1,0,0,21,125.717127,8.5711637
ES,212073,DOP SAN ANDRES IP School (IPA),CARAGA,Agusan del Sur,SAN LUIS,0,3,0,0,44,NA,NA
ES,212074,DOP BINATUNAN IP SCHOOL (IPA),CARAGA,Agusan del Sur,SAN LUIS,0,0,0,0,11,125.7728767,8.5088053
ES,500315,Maharlika ES,CARAGA,Agusan del Sur,TALACOGON,0,1,0,0,27,125.8593392,8.3615708
ES,501285,Maasin Integrated School,CARAGA,Agusan del Sur,ESPERANZA,1,0,0,0,18,125.4782766,8.6837181
ES,501286,San Pedro Integrated School,CARAGA,Agusan del Sur,SAN LUIS,1,0,0,0,16,125.8847669,8.5510227
ES,501289,Coalicion Integrated School,CARAGA,Agusan del Sur,SAN LUIS,0,0,0,0,25,125.7365465,8.4191804
ES,501290,Balobo Integrated School,CARAGA,Agusan del Sur,ESPERANZA,1,0,0,0,22,125.4541254,8.7115009
ES,501291,Bentahon Integrated School,CARAGA,Agusan del Sur,ESPERANZA,1,0,0,0,21,125.6761636,8.6848706
ES,501294,Anolingan Integrated School,CARAGA,Agusan del Sur,ESPERANZA,0,1,0,0,26,125.7758878,8.6134548
ES,501728,Mahayahay Integrated School,CARAGA,Agusan del Sur,SAN LUIS,7,0,0,0,0,125.5985738,8.383514
ES,130696,Libuac Elementary School,CARAGA,Agusan del Sur,ROSARIO,0,4,0,0,53,126.0096323,8.3903495
ES,131647,Agpan Elementary  School,CARAGA,Agusan del Sur,BUNAWAN,0,1,0,0,16,NA,NA
ES,131648,Antioquia Elementary School,CARAGA,Agusan del Sur,BUNAWAN,1,0,0,1,12,125.9996221,8.1220883
ES,131649,Babadan Elementary School,CARAGA,Agusan del Sur,BUNAWAN,0,1,0,0,23,126.0248297,8.1267855
ES,131650,Brookside  Elementary School,CARAGA,Agusan del Sur,BUNAWAN,0,8,0,0,38,126.0132104,8.1572497
ES,131651,Consuelo Elementary School,CARAGA,Agusan del Sur,BUNAWAN,0,0,0,0,29,122.6027636,13.3936275
ES,131652,East Bunawan CES with SPED Program,CARAGA,Agusan del Sur,BUNAWAN,5,0,0,1,24,114.0031368,20.9985447
ES,131653,Hagnaya ES,CARAGA,Agusan del Sur,BUNAWAN,0,2,0,0,26,125.9622244,8.2199115
ES,131654,Hubang Elementary School,CARAGA,Agusan del Sur,BUNAWAN,1,0,0,0,24,125.9985548,8.1435027
ES,131655,Imelda ES,CARAGA,Agusan del Sur,BUNAWAN,0,0,0,0,23,126.0473999,8.1215209
ES,131656,Kalingayan ES,CARAGA,Agusan del Sur,BUNAWAN,0,4,0,0,32,125.9862956,8.2691837
ES,131657,Libertad ES,CARAGA,Agusan del Sur,BUNAWAN,0,1,0,1,29,NA,NA
ES,131658,Mambalili ES,CARAGA,Agusan del Sur,BUNAWAN,0,2,0,0,30,125.9696347,8.1960438
ES,131659,Nueva Era ES,CARAGA,Agusan del Sur,BUNAWAN,0,1,0,0,26,125.9443668,8.1467208
ES,131660,San Andres ES,CARAGA,Agusan del Sur,BUNAWAN,0,2,0,0,29,NA,NA
ES,131661,San Marcos ES,CARAGA,Agusan del Sur,BUNAWAN,0,4,0,0,31,125.9274056,8.2152748
ES,131662,Sta. Monica Elementary School,CARAGA,Agusan del Sur,BUNAWAN,2,0,0,0,14,126.1172449,8.2277663
ES,131663,Tagbayangbang Elementary School,CARAGA,Agusan del Sur,BUNAWAN,0,1,0,0,20,125.9976258,8.1519071
ES,131664,Upper Consuelo I Elementary School,CARAGA,Agusan del Sur,BUNAWAN,1,0,0,0,17,126.0094604,8.1619501
ES,131665,West Bunawan Central Elementary School,CARAGA,Agusan del Sur,BUNAWAN,2,0,0,0,28,125.9907782,8.1664256
ES,131715,Binucayan Central Elementary School,CARAGA,Agusan del Sur,LORETO,0,3,0,0,30,125.817458,8.0120973
ES,131716,Cabuga Elementary School,CARAGA,Agusan del Sur,LORETO,0,7,0,0,158,125.7971958,8.0778234
ES,131717,D.O. Plaza Elementary School,CARAGA,Agusan del Sur,LORETO,0,2,0,0,23,125.8609742,8.1846733
ES,131719,Datu Subla Elementary School,CARAGA,Agusan del Sur,LORETO,4,0,0,0,11,125.755297,7.9691524
ES,131720,Don Flaviano I ES,CARAGA,Agusan del Sur,LORETO,0,2,0,0,25,125.83549,8.020917
ES,131721,Guitas ES,CARAGA,Agusan del Sur,LORETO,2,0,0,1,17,125.7650537,8.1944656
ES,131722,Ilang-Ilang ES,CARAGA,Agusan del Sur,LORETO,0,0,0,0,24,125.7891442,8.045615
ES,131723,Jandayugong ES,CARAGA,Agusan del Sur,LORETO,0,2,0,0,21,125.8318473,8.1708252
ES,131724,Johnson ES,CARAGA,Agusan del Sur,LORETO,0,2,0,0,28,125.8429359,8.0926095
ES,131725,Kasapa ES,CARAGA,Agusan del Sur,LORETO,4,0,0,0,19,125.6375125,8.1504633
ES,131726,Katipunan ES,CARAGA,Agusan del Sur,LORETO,0,2,0,0,20,125.8979986,8.1843547
ES,131727,Kauswagan ES,CARAGA,Agusan del Sur,LORETO,0,0,0,0,26,125.7633478,7.9908091
ES,131728,Kiawan ES,CARAGA,Agusan del Sur,LORETO,0,4,0,0,25,125.8678233,8.1627783
ES,131729,Linatawan PS,CARAGA,Agusan del Sur,LORETO,0,4,0,0,43,125.8379779,8.1154249
ES,131731,Mabuhay ES,CARAGA,Agusan del Sur,LORETO,1,0,0,0,15,123.1793976,15.9613291
ES,131732,Magaud ES,CARAGA,Agusan del Sur,LORETO,0,1,0,0,27,125.8144289,8.198741
ES,131733,Manawe ES,CARAGA,Agusan del Sur,LORETO,0,1,0,0,30,125.8140263,8.1605013
ES,131734,Mansungad PS,CARAGA,Agusan del Sur,LORETO,0,1,0,0,18,125.730667,8.053412
ES,131735,Moto ES,CARAGA,Agusan del Sur,LORETO,0,1,0,0,17,125.80521,8.13538
ES,131736,Natividad Elementary School,CARAGA,Agusan del Sur,LORETO,3,0,0,0,10,125.8195869,8.0097961
ES,131737,Nueva Gracia ES,CARAGA,Agusan del Sur,LORETO,0,2,0,0,28,NA,NA
ES,131738,Paciencia ES,CARAGA,Agusan del Sur,LORETO,0,2,0,0,29,125.8000392,8.1241874
ES,131739,San Carlos I PS,CARAGA,Agusan del Sur,LORETO,0,0,0,0,14,125.8056987,7.9990572
ES,131740,San Isidro ES,CARAGA,Agusan del Sur,LORETO,2,0,0,0,21,125.8536718,8.1835231
ES,131741,San Mariano ES,CARAGA,Agusan del Sur,LORETO,0,5,0,0,35,125.7957315,8.0437008
ES,131742,San Miguel ES,CARAGA,Agusan del Sur,LORETO,0,0,0,0,16,NA,NA
ES,131743,Sta Teresa Elementary School,CARAGA,Agusan del Sur,LORETO,0,3,0,0,37,125.8101904,8.0951163
ES,131744,Sto Nino Elementary School,CARAGA,Agusan del Sur,LORETO,0,0,0,0,27,124.7538,8.0251
ES,131745,Sto. Tomas Elementary School,CARAGA,Agusan del Sur,LORETO,2,0,0,1,23,125.8013996,8.1868049
ES,131746,Violanta Elementary School,CARAGA,Agusan del Sur,LORETO,0,3,0,0,35,125.823849,8.191673
ES,131747,Waloe Elementary School,CARAGA,Agusan del Sur,LORETO,0,1,0,0,26,125.7641709,8.1947057
ES,131748,Angeles Elementary School,CARAGA,Agusan del Sur,LA PAZ,0,1,0,0,26,NA,NA
ES,131749,Bataan Elementary School,CARAGA,Agusan del Sur,LA PAZ,0,1,0,0,24,125.7420762,8.2271463
ES,131750,Comota Elementary School,CARAGA,Agusan del Sur,LA PAZ,0,0,0,0,25,125.727323,8.29882
ES,131751,Dona Adela CES,CARAGA,Agusan del Sur,LA PAZ,3,0,0,1,26,125.78063,8.2376
ES,131752,Halapitan Elementary School,CARAGA,Agusan del Sur,LA PAZ,0,0,0,0,18,125.75208,8.25015
ES,131753,Kasapa II Elementary School,CARAGA,Agusan del Sur,LA PAZ,0,0,0,0,22,125.6124991,8.181268
ES,131754,Kimondo ES,CARAGA,Agusan del Sur,LA PAZ,0,1,0,0,30,125.8159465,8.262999
ES,131755,KM 41 PS,CARAGA,Agusan del Sur,LA PAZ,0,4,0,0,35,125.799996,8.271049
ES,131756,La Paz CES,CARAGA,Agusan del Sur,LA PAZ,2,0,0,1,30,NA,NA
ES,131757,Langasian ES,CARAGA,Agusan del Sur,LA PAZ,0,2,0,0,28,125.7172157,8.2475644
ES,131758,Log Pond 3 PS,CARAGA,Agusan del Sur,LA PAZ,0,0,0,0,18,125.8134305,8.2771063
ES,131759,Lope Cortes ES,CARAGA,Agusan del Sur,LA PAZ,0,2,0,0,30,125.7323571,8.1929748
ES,131760,Lydia ES,CARAGA,Agusan del Sur,LA PAZ,0,3,0,0,38,NA,NA
ES,131762,Magboya ES,CARAGA,Agusan del Sur,LA PAZ,0,0,0,0,16,125.7186127,8.2856913
ES,131763,Maitom ES,CARAGA,Agusan del Sur,LA PAZ,2,0,0,0,19,NA,NA
ES,131764,Min-angkig Elementary School,CARAGA,Agusan del Sur,LA PAZ,0,4,0,0,46,125.8,8.271
ES,131765,Pinamoyanan elementary School,CARAGA,Agusan del Sur,LA PAZ,0,2,0,0,28,NA,NA
ES,131766,Sabang Adgawan Elementary School,CARAGA,Agusan del Sur,LA PAZ,1,0,0,0,22,125.8839,8.3164
ES,131767,Sagunto ES,CARAGA,Agusan del Sur,LA PAZ,1,0,0,0,26,125.77883,8.25046
ES,131768,San Patricio ES,CARAGA,Agusan del Sur,LA PAZ,0,2,0,0,31,NA,NA
ES,131769,Taga-Ilog Elementary School,CARAGA,Agusan del Sur,LA PAZ,0,4,0,0,35,125.7853085,8.2999798
ES,131770,Ticgon Elementary School,CARAGA,Agusan del Sur,LA PAZ,0,0,0,0,17,125.799836,8.271398
ES,131795,Jose U. Cortes ES,CARAGA,Agusan del Sur,SAN FRANCISCO,0,0,0,0,15,125.9914112,8.5654375
ES,131813,Blocking Elementary School,CARAGA,Agusan del Sur,ROSARIO,0,3,0,0,29,NA,NA
ES,131814,Bonifacio Central Elementary School,CARAGA,Agusan del Sur,ROSARIO,0,13,0,2,38,126.0057621,8.3036486
ES,131815,Brodecs Elementary School,CARAGA,Agusan del Sur,ROSARIO,0,2,0,0,16,NA,NA
ES,131816,Cabantao Elementary School,CARAGA,Agusan del Sur,ROSARIO,0,0,0,0,27,NA,NA
ES,131817,Cabawan Elementary School,CARAGA,Agusan del Sur,ROSARIO,0,3,0,0,35,125.9967524,8.3572495
ES,131818,Dulag PS,CARAGA,Agusan del Sur,ROSARIO,0,1,0,0,20,126.0832853,8.3964178
ES,131819,Garsuta ES,CARAGA,Agusan del Sur,ROSARIO,0,1,0,0,35,126.0344124,8.3561142
ES,131820,Gomburza ES,CARAGA,Agusan del Sur,ROSARIO,0,0,0,0,27,125.9680903,8.3690678
ES,131821,Jugo  Chua Sr. ES,CARAGA,Agusan del Sur,ROSARIO,0,0,0,0,19,126.0025802,8.3803403
ES,131823,Marfil ES,CARAGA,Agusan del Sur,ROSARIO,0,1,0,0,27,NA,NA
ES,131824,Masabong PS,CARAGA,Agusan del Sur,ROSARIO,0,2,0,0,26,126.0527166,8.2951727
ES,131825,Novele ES,CARAGA,Agusan del Sur,ROSARIO,0,1,0,0,27,125.9771972,8.350736
ES,131827,Rosario CES,CARAGA,Agusan del Sur,ROSARIO,2,0,0,1,29,126.0068589,8.3872566
ES,131829,Sta. Cruz Elementary School,CARAGA,Agusan del Sur,ROSARIO,0,4,0,0,33,126.0155624,8.3549926
ES,131831,Valentina Elementary School,CARAGA,Agusan del Sur,ROSARIO,0,3,0,0,30,125.9536284,8.344197
ES,131833,Alegria Elementary School,CARAGA,Agusan del Sur,SAN FRANCISCO,0,4,0,0,32,126.0084283,8.5068595
ES,131834,Bitan-agan Elementary School,CARAGA,Agusan del Sur,SAN FRANCISCO,0,0,0,0,20,NA,NA
ES,131835,Borbon Elementary School,CARAGA,Agusan del Sur,SAN FRANCISCO,0,0,0,0,26,125.8944694,8.4854499
ES,131836,Das-agan Elementary School,CARAGA,Agusan del Sur,SAN FRANCISCO,0,5,0,0,37,126.0158316,8.5487056
ES,131837,Teodoro B. Ong Yiu Memorial School,CARAGA,Agusan del Sur,SAN FRANCISCO,1,0,0,0,24,125.9669914,8.5169325
ES,131838,Karaos ES,CARAGA,Agusan del Sur,SAN FRANCISCO,0,5,0,0,33,125.9745115,8.4915685
ES,131839,Ladgadan ES,CARAGA,Agusan del Sur,SAN FRANCISCO,0,1,0,1,23,125.9334337,8.4899279
ES,131840,Lucac ES,CARAGA,Agusan del Sur,SAN FRANCISCO,0,2,0,0,29,125.963127,8.562139
ES,131841,Pisaan ES,CARAGA,Agusan del Sur,SAN FRANCISCO,1,0,0,0,22,NA,NA
ES,131842,Pudlosan ES,CARAGA,Agusan del Sur,SAN FRANCISCO,1,0,0,0,14,125.87783400000001,8.4599563
ES,131843,Rizal ES,CARAGA,Agusan del Sur,SAN FRANCISCO,0,2,0,0,18,125.8711538,8.4880603
ES,131844,San Francisco Pilot CES,CARAGA,Agusan del Sur,SAN FRANCISCO,0,25,4,0,35,125.9831338,8.5059782
ES,131845,Sta. Ana Elementary School,CARAGA,Agusan del Sur,SAN FRANCISCO,0,3,0,0,37,125.9617978,8.5022963
ES,131846,Tagapua Elementary School,CARAGA,Agusan del Sur,SAN FRANCISCO,0,1,0,0,28,125.9064263,8.5114322
ES,131847,Apogan Elementary School,CARAGA,Agusan del Sur,SAN FRANCISCO,0,1,0,0,21,NA,NA
ES,131848,Bayugan II Elementary School,CARAGA,Agusan del Sur,SAN FRANCISCO,0,3,0,0,30,125.9703,8.45499
ES,131849,Buena Suerte Elementary School,CARAGA,Agusan del Sur,SAN FRANCISCO,1,0,0,0,22,125.9389449,8.4091428
ES,131850,BY Tumulak Elementary School,CARAGA,Agusan del Sur,SAN FRANCISCO,0,1,0,0,18,125.9484754,8.4578238
ES,131852,Ebro ES,CARAGA,Agusan del Sur,SAN FRANCISCO,7,0,0,0,15,125.93532,8.44515
ES,131853,Lapinigan CES,CARAGA,Agusan del Sur,SAN FRANCISCO,0,8,0,0,36,125.9834647,8.4298422
ES,131854,Manangahon ES,CARAGA,Agusan del Sur,SAN FRANCISCO,0,0,0,0,17,126.0224426,8.4371438
ES,131855,Mate ES,CARAGA,Agusan del Sur,SAN FRANCISCO,10,0,0,0,9,126.015688,8.4319052
ES,131856,New Visayas ES,CARAGA,Agusan del Sur,SAN FRANCISCO,0,2,0,0,27,NA,NA
ES,131857,Ormaca ES,CARAGA,Agusan del Sur,SAN FRANCISCO,1,0,0,0,20,125.96976,8.50918
ES,131858,Pasta ES,CARAGA,Agusan del Sur,SAN FRANCISCO,4,0,0,0,18,125.9833613,8.4081806
ES,131859,San Francisco West Central Elementary School,CARAGA,Agusan del Sur,SAN FRANCISCO,0,2,0,0,31,125.971055,8.5080373
ES,131860,San Isidro ES,CARAGA,Agusan del Sur,SAN FRANCISCO,1,0,0,0,25,125.9676877,8.4800339
ES,131893,Alma Elementary School,CARAGA,Agusan del Sur,VERUELA,1,0,0,0,22,125.9020555,8.0652958
ES,131894,Anilao Elementary School,CARAGA,Agusan del Sur,VERUELA,0,0,0,0,19,NA,NA
ES,131895,Anitap Elementary School,CARAGA,Agusan del Sur,VERUELA,0,0,0,0,12,NA,NA
ES,131896,Bacay Elementary School,CARAGA,Agusan del Sur,VERUELA,0,1,0,0,26,NA,NA
ES,131897,Basilica Elementary School,CARAGA,Agusan del Sur,VERUELA,0,2,0,0,15,125.9004934,8.0282424
ES,131898,Baubo Elementary School,CARAGA,Agusan del Sur,VERUELA,0,1,0,0,16,125.9111595,8.0233976
ES,131899,Binongan Elementary School,CARAGA,Agusan del Sur,VERUELA,1,0,0,0,24,NA,NA
ES,131900,Caigangan Elementary School,CARAGA,Agusan del Sur,VERUELA,0,0,0,0,21,125.8602032,8.060126
ES,131901,Candiis Elementary School,CARAGA,Agusan del Sur,VERUELA,0,0,0,0,15,125.8837867,7.9255654
ES,131902,Del Monte Elementary School,CARAGA,Agusan del Sur,VERUELA,0,0,0,0,22,125.947355,8.0423961
ES,131903,Don Mateo ES,CARAGA,Agusan del Sur,VERUELA,0,1,0,0,30,NA,NA
ES,131905,Jusayan ES,CARAGA,Agusan del Sur,VERUELA,3,0,0,0,7,125.8639108,7.987441
ES,131906,Katipunan ES,CARAGA,Agusan del Sur,VERUELA,0,2,0,0,21,125.8980256,8.1843624
ES,131907,Kedijay ES,CARAGA,Agusan del Sur,VERUELA,0,3,0,0,27,125.8881211,7.9609532
ES,131909,Limot ES,CARAGA,Agusan del Sur,VERUELA,0,1,0,0,10,NA,NA
ES,131910,Logum ES,CARAGA,Agusan del Sur,VERUELA,0,0,0,1,29,125.9136352,8.024417
ES,131911,Magsaysay ES,CARAGA,Agusan del Sur,VERUELA,0,0,0,0,23,125.9315221,8.0548323
ES,131912,Mahayahay ES,CARAGA,Agusan del Sur,VERUELA,0,0,0,0,14,125.9473734,8.0179116
ES,131913,Nueva Era ES,CARAGA,Agusan del Sur,VERUELA,2,0,0,0,21,125.9217203,8.0924395
ES,131914,Sampaguita CES,CARAGA,Agusan del Sur,VERUELA,0,4,0,1,31,125.9507579,8.0179683
ES,131915,San Gabriel ES,CARAGA,Agusan del Sur,VERUELA,0,1,0,0,22,125.9216706,8.0924349
ES,131916,San Vicente ES,CARAGA,Agusan del Sur,VERUELA,0,0,0,0,13,125.954234,8.0485747
ES,131917,Sawagan ES,CARAGA,Agusan del Sur,VERUELA,0,0,0,0,25,118.2897949,11.9483112
ES,131918,Sinobong Central Elementary School,CARAGA,Agusan del Sur,VERUELA,0,3,0,0,31,NA,NA
ES,131919,Sisimon Elementary School,CARAGA,Agusan del Sur,VERUELA,3,0,0,0,11,NA,NA
ES,131920,Sta. Cruz Elementary School,CARAGA,Agusan del Sur,VERUELA,0,0,0,0,16,NA,NA
ES,131921,Sta. Emelia Elementary School,CARAGA,Agusan del Sur,VERUELA,0,1,0,0,26,NA,NA
ES,131922,Veruela Central Elementary School,CARAGA,Agusan del Sur,VERUELA,2,0,0,0,26,125.9539129,8.0723209
ES,131924,Aurora Elementary School,CARAGA,Agusan del Sur,SANTA JOSEFA,1,0,0,1,27,126.0179847,8.0088959
ES,131925,Malipayon ES,CARAGA,Agusan del Sur,SANTA JOSEFA,1,0,0,0,13,126.0153994,8.0677745
ES,131926,Pag-asa ES,CARAGA,Agusan del Sur,SANTA JOSEFA,0,1,0,0,18,126.0409619,8.0480796
ES,131928,San Jose ES,CARAGA,Agusan del Sur,SANTA JOSEFA,3,0,0,0,19,126.0006071,8.0020745
ES,131930,San Vicente ES,CARAGA,Agusan del Sur,SANTA JOSEFA,1,0,0,0,14,126.001801,8.0750297
ES,131931,Sayon Elementary School,CARAGA,Agusan del Sur,SANTA JOSEFA,0,1,0,0,26,125.9881182,7.9833156
ES,131932,Simeon S. Castor Elementary School,CARAGA,Agusan del Sur,SANTA JOSEFA,0,0,0,0,16,126.0095644,7.983773
ES,131933,Sta. Isabel Elementary School,CARAGA,Agusan del Sur,SANTA JOSEFA,0,1,0,0,16,126.0338756,8.0105781
ES,131934,Sta. Josefa Central Elementary School with SPED Program,CARAGA,Agusan del Sur,SANTA JOSEFA,5,0,0,3,24,126.0262996,7.9901155
ES,131996,Basa Elementary School,CARAGA,Agusan del Sur,TRENTO,0,0,0,0,26,126.0591572,8.069421
ES,131997,Cahian Elementary School,CARAGA,Agusan del Sur,TRENTO,0,1,0,0,23,126.0148787,8.086399
ES,131998,Cebolin Elementary School,CARAGA,Agusan del Sur,TRENTO,0,0,0,0,27,126.1377134,8.0308018
ES,131999,Cuevas Elementary School,CARAGA,Agusan del Sur,TRENTO,0,3,0,0,25,126.09228,8.01861
ES,132000,Gasa ES,CARAGA,Agusan del Sur,TRENTO,0,2,0,0,27,126.0744595,8.0483771
ES,132001,Isdaon Elementary School,CARAGA,Agusan del Sur,TRENTO,1,0,0,0,20,126.0552484,8.019736
ES,132002,Kapatungan Elementary School,CARAGA,Agusan del Sur,TRENTO,0,2,0,0,30,126.0349274,8.0788646
ES,132003,Langkila-an ES,CARAGA,Agusan del Sur,TRENTO,1,0,0,0,22,126.0878359,7.9674801
ES,132004,Maica ES,CARAGA,Agusan del Sur,TRENTO,0,1,0,0,18,126.1112992,8.0750043
ES,132005,Manat ES,CARAGA,Agusan del Sur,TRENTO,3,0,0,0,25,126.0878491,8.0934168
ES,132006,Melfreda ES,CARAGA,Agusan del Sur,TRENTO,0,2,0,0,17,126.1140415,7.9908338
ES,132007,Pangyan Elementary School,CARAGA,Agusan del Sur,TRENTO,0,3,0,0,24,126.294812,8.0949108
ES,132008,Pulanglupa ES,CARAGA,Agusan del Sur,TRENTO,3,0,0,0,22,126.0774314,8.0047772
ES,132009,Quimayong ES,CARAGA,Agusan del Sur,TRENTO,0,1,0,0,20,NA,NA
ES,132010,Salvacion ES,CARAGA,Agusan del Sur,TRENTO,0,0,0,0,24,126.1236088,8.0104581
ES,132011,San Ignacio ES,CARAGA,Agusan del Sur,TRENTO,0,3,0,0,31,126.1478662,8.001466
ES,132012,San Isidro ES,CARAGA,Agusan del Sur,TRENTO,0,1,0,1,28,NA,NA
ES,132013,San Juan ES,CARAGA,Agusan del Sur,TRENTO,0,0,0,0,23,NA,NA
ES,132014,San Marcos ES,CARAGA,Agusan del Sur,TRENTO,0,0,0,0,8,126.1353463,8.0071361
ES,132015,San Miguel ES,CARAGA,Agusan del Sur,TRENTO,0,1,0,0,15,126.1597552,8.0247414
ES,132016,San Roque ES,CARAGA,Agusan del Sur,TRENTO,0,1,0,0,24,125.7783566,8.2918455
ES,132017,Sta Maria Elementary School,CARAGA,Agusan del Sur,TRENTO,0,4,0,0,31,126.1607876,8.0184505
ES,132018,Trento Central Elementary School,CARAGA,Agusan del Sur,TRENTO,0,5,0,0,31,126.0613116,8.0470426
ES,132019,Trento West Central Elementary  SPED Center,CARAGA,Agusan del Sur,TRENTO,0,2,0,0,30,126.060554,8.0441166
ES,132020,Tudela Elementary School,CARAGA,Agusan del Sur,TRENTO,0,1,0,0,22,126.1021911,8.0676369
ES,132021,Upper Manat Elementary School,CARAGA,Agusan del Sur,TRENTO,0,0,0,0,17,126.0951269,8.1000058
ES,132022,Upper New Visayas Elementary School,CARAGA,Agusan del Sur,TRENTO,0,1,0,0,12,NA,NA
ES,136966,DUMATRISFA Elementary School,CARAGA,Agusan del Sur,SAN FRANCISCO,0,2,0,0,24,125.9764167,8.5638913
ES,136975,Damayon IP School,CARAGA,Agusan del Sur,LORETO,0,4,0,0,42,125.5810797,8.1823384
ES,136977,Datu Casal Elementary School,CARAGA,Agusan del Sur,LORETO,0,1,0,0,7,125.759208,7.968049
ES,136981,Don Enesterio S. Otaza Elementary School,CARAGA,Agusan del Sur,LORETO,0,1,0,0,10,125.761595,8.2030801
ES,136983,Ilo-an Elementary School,CARAGA,Agusan del Sur,LORETO,0,1,0,0,13,125.8447337,8.1785853
ES,136985,Kapda IP School,CARAGA,Agusan del Sur,LORETO,0,0,0,0,19,125.7220624,7.987863
ES,136986,Libon Elementary School,CARAGA,Agusan del Sur,LA PAZ,0,2,0,0,28,125.6739384,8.32408
ES,136987,Lilo Elementary School,CARAGA,Agusan del Sur,SANTA JOSEFA,0,2,0,0,14,126.054975,7.9807141
ES,136988,Liwangwangan Elementary School,CARAGA,Agusan del Sur,LA PAZ,0,2,0,0,15,125.68697709999999,8.3304698
ES,136990,Lumad Elementary School,CARAGA,Agusan del Sur,LORETO,0,1,0,0,28,125.785396,8.122213
ES,136993,Pan-ajatan Elementary School,CARAGA,Agusan del Sur,LORETO,0,1,0,0,21,125.646901,8.14691
ES,136997,Tagbalihaw Elementary School,CARAGA,Agusan del Sur,LORETO,0,1,0,0,8,125.6451988,8.1418901
ES,212005,Datu Hilad Elementary School,CARAGA,Agusan del Sur,LORETO,0,0,0,0,10,125.7713771,8.0546922
ES,212006,Ferdinand-Sabud ES,CARAGA,Agusan del Sur,LORETO,0,1,0,0,19,125.7196748,7.9854351
ES,212008,New Israel ES,CARAGA,Agusan del Sur,TRENTO,0,1,0,0,23,126.1738586,8.0178213
ES,212013,Singanan Elementary School,CARAGA,Agusan del Sur,BUNAWAN,0,2,0,0,27,126.0107803,8.2040235
ES,212014,J.A. Morales ES,CARAGA,Agusan del Sur,ROSARIO,0,2,0,0,18,125.9587097,8.362763
ES,212015,P.F. Trillana PS,CARAGA,Agusan del Sur,ROSARIO,0,1,0,0,8,NA,NA
ES,212016,Kaangayan PS,CARAGA,Agusan del Sur,SANTA JOSEFA,0,1,0,0,8,126.0120182,8.0502296
ES,212017,Dona Crucita PS,CARAGA,Agusan del Sur,LORETO,0,0,0,0,2,125.609538,8.114608
ES,212018,Munez PS,CARAGA,Agusan del Sur,LA PAZ,0,2,0,0,23,125.799965,8.272337
ES,212022,Upper Consuelo II Elementary School,CARAGA,Agusan del Sur,BUNAWAN,0,12,0,0,43,126.008277,8.2331522
ES,212023,Sikat Mactan ES,CARAGA,Agusan del Sur,LORETO,2,0,0,0,7,125.7408142,8.0946164
ES,212024,Mambagongon PS,CARAGA,Agusan del Sur,LA PAZ,0,1,0,0,15,125.8184838,8.279704
ES,212025,Kalampayan ES,CARAGA,Agusan del Sur,LA PAZ,0,0,0,0,20,125.602194,8.205379
ES,212028,Manuel J. Labindao Elementary School,CARAGA,Agusan del Sur,SAN FRANCISCO,0,1,0,0,27,125.9348458,8.5238252
ES,212030,Cogonon Elementary School,CARAGA,Agusan del Sur,TRENTO,0,4,0,0,35,126.1516428,8.0422066
ES,212031,Landing ES,CARAGA,Agusan del Sur,LA PAZ,0,0,0,0,11,125.7787305,8.2359412
ES,212032,Dao Elementary School,CARAGA,Agusan del Sur,SANTA JOSEFA,0,0,0,0,17,126.0247809,7.9594425
ES,212033,Mole PS,CARAGA,Agusan del Sur,LORETO,0,1,0,0,14,125.84022,8.0905188
ES,212034,Tagyago Elementary School,CARAGA,Agusan del Sur,LA PAZ,0,0,0,0,18,125.76915,8.32389
ES,212035,Bagong Silang Elementary School,CARAGA,Agusan del Sur,TRENTO,0,1,0,0,23,NA,NA
ES,212047,SIKAT PANLABUAN PS,CARAGA,Agusan del Sur,LORETO,0,1,0,0,7,125.8788881,8.2362462
ES,212057,Datu Madagnas Elementary School,CARAGA,Agusan del Sur,SANTA JOSEFA,0,0,0,0,10,125.9811109,7.9542768
ES,212067,MAXIMO MAGADAN MEMORIAL ES,CARAGA,Agusan del Sur,LORETO,0,1,0,0,23,125.6461823,8.1508421
ES,212069,DOP MANGUICAO IP SCHOOL (IPA),CARAGA,Agusan del Sur,LA PAZ,0,0,0,0,6,NA,NA
ES,500418,Tapaz ES,CARAGA,Agusan del Sur,SANTA JOSEFA,2,0,0,0,21,125.9957178,8.022021
ES,500419,Angas ES,CARAGA,Agusan del Sur,SANTA JOSEFA,3,0,0,0,21,126.0233686,7.9818355
ES,500798,Patrocinio Integrated School,CARAGA,Agusan del Sur,SANTA JOSEFA,0,1,0,0,24,126.0505281,7.9776632
ES,500951,San Pascual Integrated School,CARAGA,Agusan del Sur,SANTA JOSEFA,3,0,0,0,19,126.0012567,7.9672434
ES,500952,Singapore Integrated School,CARAGA,Agusan del Sur,TRENTO,0,3,0,0,31,126.2044906,8.0139205
ES,501126,Maligaya Integrated School,CARAGA,Agusan del Sur,ROSARIO,0,1,0,0,29,126.0337657,8.4252184
ES,501288,Caimpugan Integrated School,CARAGA,Agusan del Sur,SAN FRANCISCO,4,0,0,0,21,NA,NA
ES,501681,Wasian Integrated School,CARAGA,Agusan del Sur,ROSARIO,0,7,0,0,34,126.0076364,8.3257791
ES,501726,Sta. Rosa Integrated School,CARAGA,Agusan del Sur,ROSARIO,0,0,0,0,26,126.016478,8.3272988
ES,501727,Jose T. Cuyos Sr. II Integrated School,CARAGA,Agusan del Sur,ROSARIO,0,3,0,0,38,126.0458336,8.2950907
ES,131595,Bucac ES,CARAGA,Bayugan City,CITY OF BAYUGAN,2,0,0,0,22,125.762342,8.70015
ES,131596,East Bayugan CES,CARAGA,Bayugan City,CITY OF BAYUGAN,1,0,0,0,29,125.759264,8.7095495
ES,131597,FILI ELEMENTARY SCHOOL,CARAGA,Bayugan City,CITY OF BAYUGAN,4,0,0,0,20,125.76861,8.7123811
ES,131598,Gethsemane ES,CARAGA,Bayugan City,CITY OF BAYUGAN,0,1,0,0,17,125.8420157,8.7570751
ES,131599,Hamogaway ES,CARAGA,Bayugan City,CITY OF BAYUGAN,2,0,0,0,22,125.7948278,8.7106908
ES,131600,Katipunan Elementary School,CARAGA,Bayugan City,CITY OF BAYUGAN,0,0,0,0,23,125.8067018,8.6252213
ES,131601,Kiawan ES,CARAGA,Bayugan City,CITY OF BAYUGAN,1,0,0,0,8,125.7689559,8.7279384
ES,131602,Lapana Elementary School,CARAGA,Bayugan City,CITY OF BAYUGAN,0,2,0,0,31,125.783338,8.6594435
ES,131603,Magkiangkang Elementary School,CARAGA,Bayugan City,CITY OF BAYUGAN,2,0,0,0,21,125.8354121,8.7257603
ES,131604,Mt Carmel ES,CARAGA,Bayugan City,CITY OF BAYUGAN,0,1,0,0,26,125.8297722,8.7902722
ES,131605,Mt. Olive ES,CARAGA,Bayugan City,CITY OF BAYUGAN,0,0,0,1,17,125.82306,8.74466
ES,131606,New Demar ES,CARAGA,Bayugan City,CITY OF BAYUGAN,2,0,0,0,12,125.78205,8.6339417
ES,131607,New Salem ES,CARAGA,Bayugan City,CITY OF BAYUGAN,0,1,0,0,24,125.8594665,8.7614794
ES,131608,Osmena Sr. ES,CARAGA,Bayugan City,CITY OF BAYUGAN,0,0,0,0,28,125.814094,8.701462
ES,131609,Panaytay ES,CARAGA,Bayugan City,CITY OF BAYUGAN,1,0,0,1,16,125.8187,8.6673
ES,131610,Pinagala-an ES,CARAGA,Bayugan City,CITY OF BAYUGAN,1,0,0,0,21,125.80383,8.74387
ES,131611,San Isidro Elementary School,CARAGA,Bayugan City,CITY OF BAYUGAN,0,0,0,0,20,125.7786846,8.6773998
ES,131612,Sinadyap ES,CARAGA,Bayugan City,CITY OF BAYUGAN,0,0,0,0,23,125.7835093,8.7081667
ES,131613,Villa Ondayon ES,CARAGA,Bayugan City,CITY OF BAYUGAN,0,2,0,0,33,125.859724,8.7308319
ES,131614,Wilderness Elementary School,CARAGA,Bayugan City,CITY OF BAYUGAN,0,1,0,0,18,125.8392262,8.8061815
ES,131615,Agusan del Sur Pilot Laboratory School,CARAGA,Bayugan City,CITY OF BAYUGAN,0,5,0,0,33,125.751343,8.714583
ES,131616,Bayugan Central Elem. School SPED Center,CARAGA,Bayugan City,CITY OF BAYUGAN,3,0,0,0,27,125.747029,8.716909
ES,131617,Bitoon Elementary School,CARAGA,Bayugan City,CITY OF BAYUGAN,0,0,0,0,16,125.7143568,8.6709797
ES,131618,Cagbas Elementary School,CARAGA,Bayugan City,CITY OF BAYUGAN,0,2,0,0,31,125.7315932,8.7001003
ES,131619,Calaitan ES,CARAGA,Bayugan City,CITY OF BAYUGAN,1,0,0,0,24,125.7806377,8.7673494
ES,131620,Charito Elementary School,CARAGA,Bayugan City,CITY OF BAYUGAN,1,0,0,0,24,125.7536,8.66338
ES,131621,Gamao ES,CARAGA,Bayugan City,CITY OF BAYUGAN,0,0,0,0,21,125.7391778,8.6644472
ES,131622,New Bohol Elementary School,CARAGA,Bayugan City,CITY OF BAYUGAN,0,1,0,0,8,125.7987251,8.7819925
ES,131623,Saguma ES,CARAGA,Bayugan City,CITY OF BAYUGAN,0,0,0,0,25,125.74618,8.687694
ES,131624,Salvacion Central Elementary School,CARAGA,Bayugan City,CITY OF BAYUGAN,4,0,0,0,25,125.7127706,8.6845948
ES,131625,Sta. Irene ES,CARAGA,Bayugan City,CITY OF BAYUGAN,0,4,0,0,29,125.7528167,8.7339083
ES,131626,Bayugan West CES,CARAGA,Bayugan City,CITY OF BAYUGAN,4,0,0,1,25,125.741176,8.7132678
ES,131627,Berseba ES,CARAGA,Bayugan City,CITY OF BAYUGAN,3,0,0,0,21,125.8138356,8.8340411
ES,131628,Canayugan ES,CARAGA,Bayugan City,CITY OF BAYUGAN,1,0,0,0,14,125.7165564,8.7536848
ES,131629,Claro Cortes ES,CARAGA,Bayugan City,CITY OF BAYUGAN,0,1,0,0,29,125.431,8.5141
ES,131630,Mabuhay ES,CARAGA,Bayugan City,CITY OF BAYUGAN,0,0,0,0,25,125.7100832,8.7698136
ES,131631,Mahayag ES,CARAGA,Bayugan City,CITY OF BAYUGAN,0,0,0,0,18,125.75239,8.7996028
ES,131632,Maygatasan Elementary School,CARAGA,Bayugan City,CITY OF BAYUGAN,0,0,0,0,20,125.7178899,8.705473
ES,131633,Montevista ES,CARAGA,Bayugan City,CITY OF BAYUGAN,0,0,0,0,19,125.6779261,8.7263112
ES,131634,Mt. Ararat ES,CARAGA,Bayugan City,CITY OF BAYUGAN,0,1,0,0,22,125.8309329,8.8275339
ES,131635,Mt. Bulawan ES,CARAGA,Bayugan City,CITY OF BAYUGAN,0,0,0,0,13,125.8685719,8.8328667
ES,131636,New Leyte ES,CARAGA,Bayugan City,CITY OF BAYUGAN,1,0,0,0,13,125.473491,8.4746
ES,131637,Noli CES,CARAGA,Bayugan City,CITY OF BAYUGAN,6,0,0,0,22,125.72266,8.74371
ES,131638,Sagmone ES,CARAGA,Bayugan City,CITY OF BAYUGAN,0,1,0,0,21,125.7025337,8.7418195
ES,131639,San Agustin ES,CARAGA,Bayugan City,CITY OF BAYUGAN,0,1,0,0,19,125.6771472,8.7544028
ES,131640,San Juan ES,CARAGA,Bayugan City,CITY OF BAYUGAN,0,0,0,0,27,125.8431709,8.8519095
ES,131641,San Lorenzo ES,CARAGA,Bayugan City,CITY OF BAYUGAN,0,1,0,0,8,125.7869,8.8419
ES,131642,Sto Nino ES,CARAGA,Bayugan City,CITY OF BAYUGAN,0,1,0,0,23,125.777356,8.813123
ES,131643,Taglibas ES,CARAGA,Bayugan City,CITY OF BAYUGAN,0,1,0,0,16,125.693054,8.767755
ES,131644,Tagubay ES,CARAGA,Bayugan City,CITY OF BAYUGAN,0,0,0,0,19,125.7233977,8.7696651
ES,131645,Verdu ES,CARAGA,Bayugan City,CITY OF BAYUGAN,1,0,0,0,25,125.7046528,8.7245667
ES,131646,Wawa Elementary School,CARAGA,Bayugan City,CITY OF BAYUGAN,0,1,0,0,24,125.7094111,8.7984778
ES,212003,New Katipunan ES,CARAGA,Bayugan City,CITY OF BAYUGAN,0,0,0,0,14,125.8637521,8.8461753
ES,212012,Datu Hugmakan ES,CARAGA,Bayugan City,CITY OF BAYUGAN,1,0,0,0,18,125.8635417,8.8849611
ES,212021,Grace Estate Elementary School,CARAGA,Bayugan City,CITY OF BAYUGAN,1,0,0,0,12,125.8340151,8.7317413
ES,281501,Dalikan Elementary School,CARAGA,Bayugan City,CITY OF BAYUGAN,0,1,0,0,16,125.844605,8.8115603
ES,137000,Legaspi Elementary School,CARAGA,Bayugan City,CITY OF BAYUGAN,1,0,0,0,9,125.81576,8.80574
ES,132607,Balingan Elementary School,CARAGA,Bislig City,CITY OF BISLIG,0,0,0,0,25,126.3392093,8.1825
ES,132608,Bebiano Alba Elementary School,CARAGA,Bislig City,CITY OF BISLIG,0,0,0,0,17,126.3230378,8.2498515
ES,132609,Bislig Central Elementary School,CARAGA,Bislig City,CITY OF BISLIG,1,0,0,0,28,126.3149126,8.2176811
ES,132610,Bucto Elementary School,CARAGA,Bislig City,CITY OF BISLIG,0,2,0,0,22,126.3332076,8.2597982
ES,132611,Burboanan Elementary School,CARAGA,Bislig City,CITY OF BISLIG,0,0,0,0,23,126.2557227,8.1827806
ES,132612,Caguyao Elementary School,CARAGA,Bislig City,CITY OF BISLIG,0,1,0,0,19,126.3616451,8.2785553
ES,132613,Coleto Elementary School,CARAGA,Bislig City,CITY OF BISLIG,2,0,0,0,23,126.2731959,8.2276291
ES,132614,Delot Elementary School,CARAGA,Bislig City,CITY OF BISLIG,0,0,0,0,20,126.32366,8.296931
ES,132615,F. C. Pedraverde-Lindo Elementary School,CARAGA,Bislig City,CITY OF BISLIG,0,0,0,0,19,126.3483101,8.1815701
ES,132616,Maharlika Elementary School,CARAGA,Bislig City,CITY OF BISLIG,0,0,0,0,23,126.2839629,8.2487105
ES,132617,Gerardo D. Verano Jr. Elementary School,CARAGA,Bislig City,CITY OF BISLIG,0,0,0,0,18,126.3289869,8.0990425
ES,132618,Isabelo Landeta Elementary School,CARAGA,Bislig City,CITY OF BISLIG,0,1,0,0,22,126.3550169,8.1764337
ES,132619,Mabog Elementary School,CARAGA,Bislig City,CITY OF BISLIG,1,0,0,0,24,126.1763246,8.2099457
ES,132620,Mamparasan Elementary School,CARAGA,Bislig City,CITY OF BISLIG,0,3,0,0,24,126.2176345,8.2138902
ES,132621,Mantaban Elementary School,CARAGA,Bislig City,CITY OF BISLIG,0,1,0,0,20,126.2719578,8.2704033
ES,132622,Mantuyom Elementary School,CARAGA,Bislig City,CITY OF BISLIG,1,0,0,0,13,126.1993393,8.230752
ES,132623,Ser-Fel Mone Elementary School,CARAGA,Bislig City,CITY OF BISLIG,1,0,0,0,19,126.2751243,8.1762648
ES,132624,Olayvar Elementary School,CARAGA,Bislig City,CITY OF BISLIG,1,0,0,0,22,126.3529153,8.1706354
ES,132625,Pamanlinan Elementary School,CARAGA,Bislig City,CITY OF BISLIG,0,2,0,0,21,126.2696292,8.2095342
ES,132627,Puerto Elementary School,CARAGA,Bislig City,CITY OF BISLIG,0,1,0,0,19,126.2597298,8.2591752
ES,132628,R. Castillo Elementary School,CARAGA,Bislig City,CITY OF BISLIG,0,1,0,0,28,126.3296621,8.1912276
ES,132629,R. Castillo Elementary School,CARAGA,Bislig City,CITY OF BISLIG,0,1,0,0,20,126.2553167,8.1508406
ES,132630,San Antonio Elementary School,CARAGA,Bislig City,CITY OF BISLIG,0,1,0,0,22,126.3125162,8.1543448
ES,132631,San Fernando Elementary School,CARAGA,Bislig City,CITY OF BISLIG,0,0,0,0,24,126.3043387,8.2221241
ES,132632,San Isidro Elementary School,CARAGA,Bislig City,CITY OF BISLIG,1,0,0,0,24,126.3013254,8.172673
ES,132633,Gaspar Serrano Elementary School,CARAGA,Bislig City,CITY OF BISLIG,0,4,0,0,34,126.2902072,8.1176459
ES,132634,San Nicolas Elementary School,CARAGA,Bislig City,CITY OF BISLIG,0,0,0,0,16,126.2336751,8.223417
ES,132635,San Roque Central Elementary School,CARAGA,Bislig City,CITY OF BISLIG,1,0,0,0,21,126.2804609,8.2433372
ES,132636,San Vicente Elementary School,CARAGA,Bislig City,CITY OF BISLIG,0,0,0,0,23,126.2929502,8.281925
ES,132637,Sanyata Elementary School,CARAGA,Bislig City,CITY OF BISLIG,1,0,0,0,21,126.2479677,8.2522723
ES,132638,SIMON EDGAR A. GARAY ES,CARAGA,Bislig City,CITY OF BISLIG,0,1,0,0,27,126.2932708,8.2372625
ES,132639,Sote Elementary School,CARAGA,Bislig City,CITY OF BISLIG,0,0,0,0,21,126.2170542,8.1827686
ES,132640,Sta. Cruz Elementary School,CARAGA,Bislig City,CITY OF BISLIG,0,1,0,0,23,126.2986579,8.2560168
ES,132641,Pablo B. Duray - Tumanan Elementary School,CARAGA,Bislig City,CITY OF BISLIG,1,0,0,0,14,126.3468992,8.2675808
ES,132833,Mangagoy Central Elementary School,CARAGA,Bislig City,CITY OF BISLIG,3,0,0,0,27,126.3534931,8.1843049
ES,132834,Mangagoy East  Elementary School,CARAGA,Bislig City,CITY OF BISLIG,3,0,0,0,17,126.3551173,8.1834875
ES,132835,Mangagoy Hilltop Elementary School,CARAGA,Bislig City,CITY OF BISLIG,2,0,0,0,21,126.3539617,8.1831413
ES,132836,Mangagoy North Elementary School,CARAGA,Bislig City,CITY OF BISLIG,0,0,0,0,23,126.3544557,8.1842979
ES,132837,Mangagoy South Elementary School,CARAGA,Bislig City,CITY OF BISLIG,0,1,0,0,25,126.3546016,8.183422
ES,132838,Caramcam Elementary School,CARAGA,Bislig City,CITY OF BISLIG,0,1,0,0,27,126.3555719,8.1919274
ES,132839,Espiritu Elementary School,CARAGA,Bislig City,CITY OF BISLIG,0,3,0,0,32,126.3821336,8.1969498
ES,132840,Labisma Elementary School,CARAGA,Bislig City,CITY OF BISLIG,0,1,0,0,23,126.400983,8.1964043
ES,132841,Lawigan Elementary School,CARAGA,Bislig City,CITY OF BISLIG,1,0,0,0,21,126.4345509,8.2352495
ES,132842,Paler Lumayog Elementary School,CARAGA,Bislig City,CITY OF BISLIG,0,2,0,0,21,126.362105,8.1767822
ES,132843,Plaza Central Elementary School,CARAGA,Bislig City,CITY OF BISLIG,0,1,0,0,27,126.3622293,8.1827978
ES,132844,Requina Elementary School,CARAGA,Bislig City,CITY OF BISLIG,0,2,0,1,29,126.3576484,8.1761209
ES,235001,P. M. Clar Elementary School,CARAGA,Bislig City,CITY OF BISLIG,0,1,0,0,21,126.3978648,8.2085883
ES,235002,BCD SPED Center,CARAGA,Bislig City,CITY OF BISLIG,0,6,1,0,33,126.3537252,8.183378
ES,235003,New Bongga Elementary School,CARAGA,Bislig City,CITY OF BISLIG,0,4,0,0,24,126.3381147,8.0807597
ES,235004,New Jerusalem Elementary School,CARAGA,Bislig City,CITY OF BISLIG,0,1,0,0,23,126.2625024,8.1059297
ES,501292,Pamaypayan Integrated School,CARAGA,Bislig City,CITY OF BISLIG,0,0,0,0,24,126.2894758,8.094863
ES,132023,Butuan Central Elementary School,CARAGA,Butuan City,BUTUAN CITY (Capital),8,0,0,0,28,125.54325,8.946245
ES,132024,Bading ES,CARAGA,Butuan City,BUTUAN CITY (Capital),1,0,0,0,25,125.5359,8.9658
ES,132025,Obrero ES,CARAGA,Butuan City,BUTUAN CITY (Capital),0,6,0,0,32,125.53808,8.96243
ES,132026,Ong Yiu CES,CARAGA,Butuan City,BUTUAN CITY (Capital),2,0,0,0,27,125.53715,8.95593
ES,132027,Ampayon CES,CARAGA,Butuan City,BUTUAN CITY (Capital),0,17,0,0,37,125.60482,8.9633
ES,132028,Anticala ES,CARAGA,Butuan City,BUTUAN CITY (Capital),0,3,0,0,32,125.6474034,9.003625
ES,132029,Antongalon ES,CARAGA,Butuan City,BUTUAN CITY (Capital),0,3,0,0,31,125.62115,8.94831
ES,132031,Daan Taligaman Elementary School,CARAGA,Butuan City,BUTUAN CITY (Capital),0,1,0,0,19,125.6654987,8.9525853
ES,132032,De Oro Elementay School,CARAGA,Butuan City,BUTUAN CITY (Capital),0,3,0,0,29,125.6426838,8.916733
ES,132033,Dugyaman ES,CARAGA,Butuan City,BUTUAN CITY (Capital),0,0,0,0,15,125.69235,9.01476
ES,132034,Imelda ES,CARAGA,Butuan City,BUTUAN CITY (Capital),0,1,0,0,18,125.6598411,8.9627409
ES,132035,Mahayahay ES,CARAGA,Butuan City,BUTUAN CITY (Capital),0,1,0,0,19,125.6792486,9.0023469
ES,132036,Pianing ES,CARAGA,Butuan City,BUTUAN CITY (Capital),0,3,0,0,30,125.642357,8.987241
ES,132037,Sumilihon CES,CARAGA,Butuan City,BUTUAN CITY (Capital),0,4,0,1,31,125.61352,8.9916
ES,132039,Taguibo Elementary School,CARAGA,Butuan City,BUTUAN CITY (Capital),0,3,0,0,30,125.6263932,8.9708517
ES,132040,Taligaman ES,CARAGA,Butuan City,BUTUAN CITY (Capital),0,0,0,0,27,125.6315897,8.9373148
ES,132041,A.J. Mejia ES,CARAGA,Butuan City,BUTUAN CITY (Capital),0,1,0,0,22,125.5878466,9.0044393
ES,132042,Banza ES,CARAGA,Butuan City,BUTUAN CITY (Capital),0,4,0,0,31,125.5457731,8.9807991
ES,132044,Bobon ES,CARAGA,Butuan City,BUTUAN CITY (Capital),0,3,0,0,31,125.55848,8.95642
ES,132046,Los Angeles ES,CARAGA,Butuan City,BUTUAN CITY (Capital),0,4,0,0,32,125.6090086,9.0133433
ES,132047,MAUG ELEMENTARY SCHOOL,CARAGA,Butuan City,BUTUAN CITY (Capital),0,3,0,0,30,125.53576,8.97999
ES,132049,Jose R. Magno Elementary School,CARAGA,Butuan City,BUTUAN CITY (Capital),0,2,0,0,32,125.5053,8.9434
ES,132050,Silad-Mahogany Elem. School,CARAGA,Butuan City,BUTUAN CITY (Capital),0,0,0,0,27,125.550929,8.9606847
ES,132051,Sto Nino ES.,CARAGA,Butuan City,BUTUAN CITY (Capital),0,2,0,0,34,125.5926315,9.0371024
ES,132052,Pedro D. Duncano ES,CARAGA,Butuan City,BUTUAN CITY (Capital),0,3,0,0,31,125.581304,8.973376
ES,132053,Agusan Pequeno ES,CARAGA,Butuan City,BUTUAN CITY (Capital),0,0,0,0,29,125.524,8.9734
ES,132055,Babag Elementary School,CARAGA,Butuan City,BUTUAN CITY (Capital),0,3,0,0,27,125.5163,8.97711
ES,132057,"Jose T. Domingo, Sr. CES",CARAGA,Butuan City,BUTUAN CITY (Capital),0,1,0,0,31,125.531752,8.954206
ES,132058,Lumbocan ES,CARAGA,Butuan City,BUTUAN CITY (Capital),0,0,0,0,30,125.508501,9.008986
ES,132059,Pedro-Victorina Calo Elementary School,CARAGA,Butuan City,BUTUAN CITY (Capital),0,5,0,0,33,125.52573,8.98657
ES,132061,Aupagan ES,CARAGA,Butuan City,BUTUAN CITY (Capital),0,3,0,0,32,125.5650387,8.884444
ES,132062,Basag ES,CARAGA,Butuan City,BUTUAN CITY (Capital),0,4,0,0,32,125.6144414,8.932769
ES,132063,Bilay Elementary School,CARAGA,Butuan City,BUTUAN CITY (Capital),0,0,0,0,25,125.5773085,8.8486903
ES,132064,Bugabus Elementary School,CARAGA,Butuan City,BUTUAN CITY (Capital),0,2,0,0,27,125.52221,8.959829
ES,132065,Buhangin Elementary School,CARAGA,Butuan City,BUTUAN CITY (Capital),0,5,0,0,33,125.549545,8.946499
ES,132066,Cabaasan ES,CARAGA,Butuan City,BUTUAN CITY (Capital),0,1,0,0,23,125.6004326,8.8313253
ES,132067,Camayahan ES,CARAGA,Butuan City,BUTUAN CITY (Capital),0,2,0,0,31,125.60633,8.909063
ES,132068,Datu Ecleo Elementary School,CARAGA,Butuan City,BUTUAN CITY (Capital),1,0,0,0,11,125.579722,8.851253
ES,132069,Don Francisco Elementary School,CARAGA,Butuan City,BUTUAN CITY (Capital),0,3,0,0,34,125.589493,8.860691
ES,132070,Don Gaudencio Santos ES,CARAGA,Butuan City,BUTUAN CITY (Capital),0,0,0,0,28,125.562447,8.903015
ES,132071,Dona Josefa Elementary School,CARAGA,Butuan City,BUTUAN CITY (Capital),0,3,0,0,25,125.594884,8.879042
ES,132072,Doña Teodora ES,CARAGA,Butuan City,BUTUAN CITY (Capital),0,0,0,0,27,125.626,8.9069
ES,132073,"Datu Santiago B. Ecleo, Sr. Mem'l. Elem. School",CARAGA,Butuan City,BUTUAN CITY (Capital),0,2,0,0,31,125.5900379,8.8168347
ES,132074,F.R. Sibayan Central Elem. School,CARAGA,Butuan City,BUTUAN CITY (Capital),0,3,0,2,30,125.565106,8.95463
ES,132075,Lemon ES,CARAGA,Butuan City,BUTUAN CITY (Capital),0,0,0,0,26,125.591667,8.936944
ES,132077,Maibu ES,CARAGA,Butuan City,BUTUAN CITY (Capital),0,3,0,0,28,125.625572,8.823999
ES,132078,Masago Elementary School,CARAGA,Butuan City,BUTUAN CITY (Capital),0,3,0,0,26,125.559151,8.932713
ES,132079,Pigdaulan ES,CARAGA,Butuan City,BUTUAN CITY (Capital),0,2,0,0,32,125.584023,8.916592
ES,132082,Tagpulangi ES,CARAGA,Butuan City,BUTUAN CITY (Capital),0,2,0,0,17,125.57439,8.8262447
ES,132083,Amparo CES,CARAGA,Butuan City,BUTUAN CITY (Capital),2,0,0,0,23,125.557613,8.865257
ES,132084,Bagong Silang ES,CARAGA,Butuan City,BUTUAN CITY (Capital),0,2,0,0,28,125.5016702,8.7510239
ES,132085,Bitan-agan Elementary School,CARAGA,Butuan City,BUTUAN CITY (Capital),0,0,0,0,24,125.52853,8.848913
ES,132086,Calaitan ES,CARAGA,Butuan City,BUTUAN CITY (Capital),0,2,0,0,27,125.4824026,8.82025
ES,132087,Danapa ES,CARAGA,Butuan City,BUTUAN CITY (Capital),0,0,0,0,15,125.51599,8.7649
ES,132088,Dankias Elementary School,CARAGA,Butuan City,BUTUAN CITY (Capital),0,1,0,0,23,125.5815038,8.7593619
ES,132089,Dulag ES,CARAGA,Butuan City,BUTUAN CITY (Capital),0,2,0,0,26,125.53454,8.82418
ES,132090,M. L. Pineda MES (Florida ES),CARAGA,Butuan City,BUTUAN CITY (Capital),0,2,0,0,24,125.589392,8.781203
ES,132091,Imelda Mar ES,CARAGA,Butuan City,BUTUAN CITY (Capital),0,2,0,0,22,125.4879,8.834
ES,132092,Kauswagan ES,CARAGA,Butuan City,BUTUAN CITY (Capital),0,1,0,0,20,125.51694,8.76535
ES,132094,Lamosig E/S,CARAGA,Butuan City,BUTUAN CITY (Capital),0,1,0,0,26,125.51503,8.783583
ES,132095,Mabuhay ES,CARAGA,Butuan City,BUTUAN CITY (Capital),0,0,0,0,16,125.54392,8.800546
ES,132096,Mandamo Elementary School,CARAGA,Butuan City,BUTUAN CITY (Capital),0,1,0,0,24,125.6029,8.7607
ES,132098,San Juan ES,CARAGA,Butuan City,BUTUAN CITY (Capital),0,1,0,0,24,125.621518,8.799947
ES,132099,San Mateo Annex ES,CARAGA,Butuan City,BUTUAN CITY (Capital),0,3,0,0,35,125.5628,8.78297
ES,132100,San Mateo Old ES,CARAGA,Butuan City,BUTUAN CITY (Capital),0,1,0,0,17,125.588828,8.788676
ES,132101,Sta Cruz Elementary School,CARAGA,Butuan City,BUTUAN CITY (Capital),0,1,0,0,28,125.5177049,8.8210373
ES,132102,Tungao CES,CARAGA,Butuan City,BUTUAN CITY (Capital),6,0,0,0,21,125.5746448,8.7713143
ES,132103,West Tungao ES,CARAGA,Butuan City,BUTUAN CITY (Capital),0,3,0,0,22,125.5442179,8.7845752
ES,132105,Bit-os ES,CARAGA,Butuan City,BUTUAN CITY (Capital),0,0,0,0,27,125.545278,8.893333
ES,132106,Mandacpan ES,CARAGA,Butuan City,BUTUAN CITY (Capital),0,4,0,0,32,125.5483139,8.9054592
ES,132108,San Roque ES,CARAGA,Butuan City,BUTUAN CITY (Capital),0,2,0,0,20,125.531086,8.876562
ES,132109,San Vicente ES,CARAGA,Butuan City,BUTUAN CITY (Capital),0,4,0,0,33,125.5537896,8.910193
ES,132112,BLISS ES,CARAGA,Butuan City,BUTUAN CITY (Capital),0,2,0,0,30,125.4998773,8.9531688
ES,132113,Consuelo ES,CARAGA,Butuan City,BUTUAN CITY (Capital),0,3,0,0,29,125.4667,8.93181
ES,132114,Dalingdingan ES,CARAGA,Butuan City,BUTUAN CITY (Capital),0,4,0,0,28,125.4755,8.974785
ES,132115,Gabriel ES,CARAGA,Butuan City,BUTUAN CITY (Capital),0,3,0,0,30,125.5131473,8.9442408
ES,132116,Kinamlutan ES,CARAGA,Butuan City,BUTUAN CITY (Capital),0,1,0,0,28,125.523419,8.915872
ES,132118,Libertad CES,CARAGA,Butuan City,BUTUAN CITY (Capital),0,10,0,0,32,125.501983,8.944689
ES,132119,Mahayag ES,CARAGA,Butuan City,BUTUAN CITY (Capital),0,0,0,0,18,125.46721,8.91743
ES,132120,Masao ES,CARAGA,Butuan City,BUTUAN CITY (Capital),0,0,0,0,26,125.486336,8.99565
ES,132121,Matin-ao ES,CARAGA,Butuan City,BUTUAN CITY (Capital),0,0,0,0,19,125.4956346,8.911146
ES,132123,Pinamanculan ES,CARAGA,Butuan City,BUTUAN CITY (Capital),0,3,0,0,28,125.483501,8.964754
ES,137019,Sinaka IPED Elementary School,CARAGA,Butuan City,BUTUAN CITY (Capital),0,0,0,0,12,125.70164,8.98167
ES,137050,Cabcabon Elementary School,CARAGA,Butuan City,BUTUAN CITY (Capital),0,1,0,0,28,125.58017,8.98963
ES,137051,La Soledad Elementary School,CARAGA,Butuan City,BUTUAN CITY (Capital),1,0,0,0,23,125.491812,8.859067
ES,137052,Manila de Bugabus Elementary School,CARAGA,Butuan City,BUTUAN CITY (Capital),0,0,0,0,21,125.524703,8.805788
ES,212502,Butuan City Special Education Center,CARAGA,Butuan City,BUTUAN CITY (Capital),3,0,4,0,19,125.543101,8.944986
ES,212503,Francisco T. Magno ES,CARAGA,Butuan City,BUTUAN CITY (Capital),0,2,0,0,32,125.487694,8.933124
ES,212504,Tud-ol ES,CARAGA,Butuan City,BUTUAN CITY (Capital),0,2,0,0,22,125.540626,8.947537
ES,212505,Datu Man-Oloy Tribal ES,CARAGA,Butuan City,BUTUAN CITY (Capital),0,2,0,0,24,125.640169,8.810867
ES,281539,Salvacion Indigenous Community Elementary School,CARAGA,Butuan City,BUTUAN CITY (Capital),0,1,0,0,22,125.50538,8.805425
ES,500318,Riverside Integrated School,CARAGA,Butuan City,BUTUAN CITY (Capital),0,4,0,0,33,125.54789,8.95287
ES,501201,La Trinidad Integrated School,CARAGA,Butuan City,BUTUAN CITY (Capital),3,0,0,0,26,125.506085,8.929803
ES,501519,Ambago Integrated School,CARAGA,Butuan City,BUTUAN CITY (Capital),1,0,0,0,27,125.5033957,8.9663017
ES,501521,West Integrated School,CARAGA,Butuan City,BUTUAN CITY (Capital),6,0,0,0,24,125.53505,8.943709
ES,501522,Baobaoan Integrated School,CARAGA,Butuan City,BUTUAN CITY (Capital),0,0,0,0,25,125.583468,9.018916
ES,501550,Tagkiling Tribal Integrated School,CARAGA,Butuan City,BUTUAN CITY (Capital),0,2,0,0,27,125.68999,9.00871
ES,501551,Mahay Integrated School,CARAGA,Butuan City,BUTUAN CITY (Capital),0,1,0,0,32,125.558925,8.932727
ES,501552,Pareja Integrated School,CARAGA,Butuan City,BUTUAN CITY (Capital),0,0,0,0,25,125.522222,8.940278
ES,501553,Alviola Integrated School,CARAGA,Butuan City,BUTUAN CITY (Capital),0,3,0,0,29,125.58799,8.95209
ES,501554,Eulogio M. Garcia Integrated School,CARAGA,Butuan City,BUTUAN CITY (Capital),0,3,0,0,30,125.6556973,8.9523373
ES,501570,Doongan Integrated  School,CARAGA,Butuan City,BUTUAN CITY (Capital),0,10,0,0,37,125.523508,8.955567
ES,501571,Maon Integrated School,CARAGA,Butuan City,BUTUAN CITY (Capital),0,2,0,0,30,125.5444,8.9339
ES,501572,Bancasi Integrated School,CARAGA,Butuan City,BUTUAN CITY (Capital),0,3,0,0,26,125.4768847,8.9468735
ES,501573,Tagabaca Integrated School,CARAGA,Butuan City,BUTUAN CITY (Capital),0,1,0,0,26,125.579722,8.898611
ES,501784,Villa Kananga Integrated School,CARAGA,Butuan City,BUTUAN CITY (Capital),0,3,0,0,31,125.5382323,8.9291483
ES,501796,Salvacion Integrated School,CARAGA,Butuan City,BUTUAN CITY (Capital),0,1,0,0,29,125.582778,8.879722
ES,131515,Bayabas ES,CARAGA,Cabadbaran City,CITY OF CABADBARAN,1,0,0,0,23,125.59312,9.14476
ES,131516,Caasinan ES,CARAGA,Cabadbaran City,CITY OF CABADBARAN,0,0,0,0,27,125.530213,9.134001
ES,131517,Cabinet ES,CARAGA,Cabadbaran City,CITY OF CABADBARAN,0,0,0,0,26,125.52677,9.12537
ES,131518,Comagascas Elementary Schools,CARAGA,Cabadbaran City,CITY OF CABADBARAN,0,1,0,0,29,125.5597007,9.1352545
ES,131520,Del Pilar CES,CARAGA,Cabadbaran City,CITY OF CABADBARAN,0,2,0,0,29,125.583075,9.153061
ES,131521,Katugasan ES,CARAGA,Cabadbaran City,CITY OF CABADBARAN,0,2,0,0,31,125.582453,9.13194
ES,131522,Francisco C. Jongko Elementary School,CARAGA,Cabadbaran City,CITY OF CABADBARAN,0,2,0,0,34,125.530342,9.130397
ES,131523,Lusong Elementary school,CARAGA,Cabadbaran City,CITY OF CABADBARAN,0,3,0,0,26,125.683472,9.163739
ES,131527,Pirada ES,CARAGA,Cabadbaran City,CITY OF CABADBARAN,0,3,0,0,32,125.601016,9.175295
ES,131528,Puting Bato Elementary School,CARAGA,Cabadbaran City,CITY OF CABADBARAN,1,0,0,0,23,125.6322831,9.1262798
ES,131572,Antonio Luna ES,CARAGA,Cabadbaran City,CITY OF CABADBARAN,1,0,0,0,23,125.5927,9.08202
ES,131573,Bay-ang ES,CARAGA,Cabadbaran City,CITY OF CABADBARAN,0,1,0,0,26,125.5772988,9.1045422
ES,131574,Calamba ES,CARAGA,Cabadbaran City,CITY OF CABADBARAN,0,1,0,0,26,125.6031245,9.0990351
ES,131575,Calibunan ES,CARAGA,Cabadbaran City,CITY OF CABADBARAN,0,2,0,0,27,125.5330543,9.1065845
ES,131576,La Union ES,CARAGA,Cabadbaran City,CITY OF CABADBARAN,0,1,0,0,29,125.537725,9.084144
ES,131579,Soriano ES,CARAGA,Cabadbaran City,CITY OF CABADBARAN,0,0,0,0,27,125.56658,9.09754
ES,131580,South Cabadbaran CES,CARAGA,Cabadbaran City,CITY OF CABADBARAN,2,0,0,3,27,125.53713,9.12266
ES,281001,Palidan Elementary School,CARAGA,Cabadbaran City,CITY OF CABADBARAN,0,1,0,0,22,125.4,8.4
ES,281002,Masundong Elementary School,CARAGA,Cabadbaran City,CITY OF CABADBARAN,0,2,0,0,25,115.6663799,11.4537105
ES,281003,Dagnasay Elementary School,CARAGA,Cabadbaran City,CITY OF CABADBARAN,0,3,0,0,24,125.6593416,9.1453308
ES,281004,Ansili Elementary School,CARAGA,Cabadbaran City,CITY OF CABADBARAN,0,1,0,0,17,125.66811,9.17799
ES,500312,North Cabadbaran CES,CARAGA,Cabadbaran City,CITY OF CABADBARAN,0,7,1,0,31,125.53713,9.12266
ES,501722,Mahaba Integrated School,CARAGA,Cabadbaran City,CITY OF CABADBARAN,0,0,0,0,18,125.618927,9.106555
ES,501724,Chief Justice Ramon Avancena Integrated School,CARAGA,Cabadbaran City,CITY OF CABADBARAN,0,2,0,0,28,125.570863,9.086419
ES,502134,Alfonso B. Dagani ES,CARAGA,Cabadbaran City,CITY OF CABADBARAN,0,3,0,0,30,125.552841,9.113082
ES,502135,Antonio C Dagani Integrated School,CARAGA,Cabadbaran City,CITY OF CABADBARAN,0,1,0,0,28,125.5263,9.11684
ES,502136,Concepcion Elementary School,CARAGA,Cabadbaran City,CITY OF CABADBARAN,0,0,0,0,27,125.5783699,9.1837476
ES,132305,Albor Central Elementary School,CARAGA,Dinagat Island,LIBJO (ALBOR),3,0,0,0,24,125.5335744,10.1947544
ES,132306,Arellano Elementary School,CARAGA,Dinagat Island,LIBJO (ALBOR),0,3,0,0,33,125.4988164,10.1535593
ES,132307,Bayanihan Elementary School,CARAGA,Dinagat Island,LIBJO (ALBOR),0,1,0,0,9,125.606955,10.164259
ES,132308,Bolodbolod Central Elementary School,CARAGA,Dinagat Island,LIBJO (ALBOR),1,0,0,1,25,125.554273,10.201223
ES,132309,Cahayag Elementary School,CARAGA,Dinagat Island,LIBJO (ALBOR),0,0,0,0,14,125.5110311,10.1647642
ES,132310,Garcia Elementary School,CARAGA,Dinagat Island,LIBJO (ALBOR),0,1,0,0,25,125.55521,10.175922
ES,132311,Kanihaan Elementary School,CARAGA,Dinagat Island,LIBJO (ALBOR),0,1,0,0,13,125.4658899,10.1728134
ES,132312,Llamera Elementary School,CARAGA,Dinagat Island,LIBJO (ALBOR),0,0,0,1,24,125.5773275,10.1458182
ES,132313,Magsaysay Elementary School,CARAGA,Dinagat Island,LIBJO (ALBOR),0,0,0,0,14,125.523674,10.178691
ES,132314,Maytubig Elementary School,CARAGA,Dinagat Island,LIBJO (ALBOR),0,4,0,0,34,125.64711,10.188694
ES,132315,Oliverio Elementary School,CARAGA,Dinagat Island,LIBJO (ALBOR),0,3,0,0,27,125.5314159,10.219347
ES,132316,Osmeña Elementary School,CARAGA,Dinagat Island,LIBJO (ALBOR),0,0,0,0,19,125.510012,10.183403
ES,132317,Plaridel Elementary School,CARAGA,Dinagat Island,LIBJO (ALBOR),2,0,0,0,21,125.498283,10.132239
ES,132318,Quezon Elementary School,CARAGA,Dinagat Island,LIBJO (ALBOR),0,0,0,0,16,125.5135333,10.2078851
ES,132319,Rosita Elementary School,CARAGA,Dinagat Island,LIBJO (ALBOR),0,0,0,1,22,125.573469,10.128597
ES,132320,San Jose Elementary School,CARAGA,Dinagat Island,LIBJO (ALBOR),2,0,0,1,23,125.5626271,10.1768979
ES,132356,Boa Elementary School,CARAGA,Dinagat Island,CAGDIANAO,0,1,0,0,27,NA,NA
ES,132357,Borja Elementary School,CARAGA,Dinagat Island,CAGDIANAO,0,1,0,0,23,NA,NA
ES,132358,Cabiton-an Elementary School,CARAGA,Dinagat Island,CAGDIANAO,0,2,0,0,26,125.6175173,10.1531968
ES,132359,Cabungaan Elementary School,CARAGA,Dinagat Island,CAGDIANAO,0,1,0,0,27,125.6578467,9.928525
ES,132360,Cagdianao Central Elementary School,CARAGA,Dinagat Island,CAGDIANAO,6,0,0,0,18,125.6700701,9.9227125
ES,132361,Del Pilar Elementary School,CARAGA,Dinagat Island,CAGDIANAO,1,0,0,0,18,125.671306,9.995065
ES,132362,Lahi Elementary School,CARAGA,Dinagat Island,CAGDIANAO,2,0,0,0,14,125.6579231,9.9510661
ES,132363,Legaspi Elementary School,CARAGA,Dinagat Island,CAGDIANAO,0,1,0,0,14,125.621553,10.168601
ES,132364,Longos Primary School,CARAGA,Dinagat Island,CAGDIANAO,0,1,0,0,12,125.6915063,10.0639067
ES,132365,Maatas Elementary School,CARAGA,Dinagat Island,CAGDIANAO,0,0,0,0,14,125.604485,10.014638
ES,132366,Manoligao Primary School,CARAGA,Dinagat Island,CAGDIANAO,0,1,0,0,19,125.6729247,9.9221462
ES,132367,Nueva Estrella Elementary School,CARAGA,Dinagat Island,CAGDIANAO,0,0,0,0,16,125.6716248,9.9677834
ES,132368,R.E. Ecleo Sr. Elementary School,CARAGA,Dinagat Island,CAGDIANAO,0,1,0,0,22,125.6417558,9.9373514
ES,132369,San Jose Elementary School,CARAGA,Dinagat Island,CAGDIANAO,0,0,0,0,13,125.669105,9.938758
ES,132370,Sta Rita Elementary School,CARAGA,Dinagat Island,CAGDIANAO,1,0,0,0,13,125.6692435,9.9573607
ES,132371,Sto Nino Elementary School,CARAGA,Dinagat Island,CAGDIANAO,0,1,0,0,14,125.646453,9.91425
ES,132372,Tigbao Elementary School,CARAGA,Dinagat Island,CAGDIANAO,0,3,0,0,29,125.655594,9.897182
ES,132374,Valencia Elementary School,CARAGA,Dinagat Island,CAGDIANAO,0,5,0,0,36,125.65728,10.16275
ES,132375,Villa Alcaria Elementary School,CARAGA,Dinagat Island,CAGDIANAO,0,3,0,0,33,125.6773488,9.913613
ES,132391,A. Ecleo Elementary School,CARAGA,Dinagat Island,DINAGAT,0,1,0,0,13,125.554514,9.967171
ES,132392,Bagumbayan Elementary School,CARAGA,Dinagat Island,DINAGAT,0,1,0,0,25,125.627662,9.948065
ES,132393,Cabayawan Elementary School,CARAGA,Dinagat Island,DINAGAT,0,0,0,0,9,125.557306,9.9615406
ES,132394,Cab-ilan Elementary School,CARAGA,Dinagat Island,DINAGAT,0,0,0,0,21,125.546622,9.947937
ES,132395,Cayetano Elementary School,CARAGA,Dinagat Island,DINAGAT,0,2,0,0,19,125.610112,9.99254
ES,132396,Dinagat Central Elementary School,CARAGA,Dinagat Island,DINAGAT,4,0,0,1,16,125.5921438,9.957639
ES,132397,Gomez Elementary School,CARAGA,Dinagat Island,DINAGAT,0,1,0,0,13,125.57369,9.987485
ES,132398,Justiniana Elementary School,CARAGA,Dinagat Island,DINAGAT,0,2,0,0,20,125.628172,9.9630172
ES,132399,Magsaysay Elementary School,CARAGA,Dinagat Island,DINAGAT,0,1,0,0,22,125.60702,9.809958
ES,132400,New Mabuhay Elementary School,CARAGA,Dinagat Island,DINAGAT,0,0,0,0,25,125.610071,9.954245
ES,132401,Tagbuyakhao Elementary School,CARAGA,Dinagat Island,DINAGAT,0,0,0,0,15,125.57661,9.977347
ES,132402,Wadas Elementary School,CARAGA,Dinagat Island,DINAGAT,0,0,0,0,22,125.591601,9.96037
ES,132417,Acoje Elementary School,CARAGA,Dinagat Island,LORETO,0,2,0,0,7,125.6469,10.4389
ES,132418,Busay Elementary School,CARAGA,Dinagat Island,LORETO,0,1,0,0,15,125.65169,10.27023
ES,132419,Cambinliw Elementary School,CARAGA,Dinagat Island,LORETO,0,0,0,0,21,125.5873558,10.3600505
ES,132420,Dahican Elementary School,CARAGA,Dinagat Island,LORETO,0,1,0,0,16,125.493513,10.451797
ES,132421,Esperanza Elementary School,CARAGA,Dinagat Island,LORETO,0,2,0,1,29,125.61042,10.393344
ES,132422,Ferdinand Elementary School,CARAGA,Dinagat Island,LORETO,0,1,0,0,14,125.582029,10.360486
ES,132423,Liberty Elementary School,CARAGA,Dinagat Island,LORETO,1,0,0,0,12,125.4929117,10.430655
ES,132424,Loreto Central Elementary School,CARAGA,Dinagat Island,LORETO,5,0,1,0,21,125.577842,10.358714
ES,132425,Magsaysay Elementary School,CARAGA,Dinagat Island,LORETO,0,1,0,0,18,125.468561,10.451201
ES,132426,Panamaon Elementary School,CARAGA,Dinagat Island,LORETO,0,2,0,0,27,125.615474,10.416921
ES,132485,Capasanan Elementary School,CARAGA,Dinagat Island,BASILISA (RIZAL),0,2,0,0,17,125.53,10.1
ES,132486,Catadman Elementary School,CARAGA,Dinagat Island,BASILISA (RIZAL),0,0,0,0,16,125.538942,9.988172
ES,132487,Columbos Elementary School,CARAGA,Dinagat Island,BASILISA (RIZAL),0,1,0,0,16,125.512471,10.012894
ES,132488,De La Concepcion Elementary School,CARAGA,Dinagat Island,BASILISA (RIZAL),0,1,0,0,20,125.575096,10.096263
ES,132489,Diegas Elementary School,CARAGA,Dinagat Island,BASILISA (RIZAL),0,3,0,0,32,125.608415,10.08954
ES,132490,Dona Helen Elementary School,CARAGA,Dinagat Island,BASILISA (RIZAL),0,0,0,0,26,125.605053,10.043828
ES,132491,Edera Elementary School,CARAGA,Dinagat Island,BASILISA (RIZAL),0,2,0,0,18,125.572474,10.088017
ES,132492,F. S. Matugas Elementary School,CARAGA,Dinagat Island,BASILISA (RIZAL),0,1,0,0,14,125.516032,10.010344
ES,132493,Ferdinand Elementary School,CARAGA,Dinagat Island,BASILISA (RIZAL),0,1,0,0,23,125.601173,10.0675771
ES,132494,Galanida Elementary School,CARAGA,Dinagat Island,BASILISA (RIZAL),0,1,0,0,11,125.537643,10.01162
ES,132495,Geotina Elementary School,CARAGA,Dinagat Island,BASILISA (RIZAL),0,0,0,0,19,125.5894821,10.0793822
ES,132496,Jariol Elementary School,CARAGA,Dinagat Island,BASILISA (RIZAL),0,1,0,0,13,125.5777144,10.0863222
ES,132497,Melgar Elementary School,CARAGA,Dinagat Island,BASILISA (RIZAL),1,0,0,1,17,125.528266,10.064519
ES,132498,Montag Elementary School,CARAGA,Dinagat Island,BASILISA (RIZAL),0,0,0,0,14,NA,NA
ES,132499,Navarro Elementary School,CARAGA,Dinagat Island,BASILISA (RIZAL),0,0,0,0,17,125.5718136,10.0791498
ES,132500,New Nazareth Elementary School,CARAGA,Dinagat Island,BASILISA (RIZAL),0,4,0,0,24,125.582061,10.087629
ES,132501,Omay-Edradan Elementary School,CARAGA,Dinagat Island,BASILISA (RIZAL),0,2,0,0,13,125.5443432,9.9763953
ES,132502,Paniog Elementary School,CARAGA,Dinagat Island,BASILISA (RIZAL),0,0,0,0,24,125.538718,10.07214
ES,132503,Puerto Princesa Elementary School,CARAGA,Dinagat Island,BASILISA (RIZAL),2,0,0,1,19,125.483992,10.102732
ES,132504,Ritaglenda Elementary School,CARAGA,Dinagat Island,BASILISA (RIZAL),0,1,0,0,22,125.606909,10.112702
ES,132505,Rizal Central Elementary School,CARAGA,Dinagat Island,BASILISA (RIZAL),1,0,0,0,15,125.5099744,9.9973343
ES,132506,Roxas Elementary School,CARAGA,Dinagat Island,BASILISA (RIZAL),10,0,0,1,5,125.507045,10.005291
ES,132507,Sering Elementary School,CARAGA,Dinagat Island,BASILISA (RIZAL),2,0,0,0,18,125.541039,10.0815617
ES,132508,Sombrado Elementary School,CARAGA,Dinagat Island,BASILISA (RIZAL),0,1,0,0,18,125.603292,10.116227
ES,132509,Sto. Nino Elementary School,CARAGA,Dinagat Island,BASILISA (RIZAL),0,1,0,0,19,125.592969,10.060313
ES,132510,Tag-abaca Central Elementary School,CARAGA,Dinagat Island,BASILISA (RIZAL),2,0,0,1,21,125.599741,10.060932
ES,132511,Taliman Elementary School,CARAGA,Dinagat Island,BASILISA (RIZAL),0,0,0,0,19,125.605677,10.135048
ES,132512,Villa Ecleo Elementary School,CARAGA,Dinagat Island,BASILISA (RIZAL),1,0,0,0,16,125.3,9.59
ES,132513,Aurelio Elementary School,CARAGA,Dinagat Island,SAN JOSE (Capital),3,0,0,0,25,125.5761312,10.0078083
ES,132514,Borres-Omega Elementary School,CARAGA,Dinagat Island,SAN JOSE (Capital),0,0,0,0,5,125.5851084,10.0479697
ES,132515,Cuarenta Elementary School,CARAGA,Dinagat Island,SAN JOSE (Capital),0,1,0,0,30,125.606242,10.018197
ES,132516,Don Ruben Elementary School,CARAGA,Dinagat Island,SAN JOSE (Capital),0,0,0,0,24,125.5756724,10.0142712
ES,132517,Jacquez Primary School,CARAGA,Dinagat Island,SAN JOSE (Capital),0,1,0,1,22,125.5737412,10.0062002
ES,132518,Justiniana Edera Elementary School,CARAGA,Dinagat Island,SAN JOSE (Capital),0,0,0,0,15,125.5762994,10.0113653
ES,132519,Luna Elementary School,CARAGA,Dinagat Island,SAN JOSE (Capital),0,3,0,0,30,125.6022195,10.0014442
ES,132520,Mahayahay Elementary School,CARAGA,Dinagat Island,SAN JOSE (Capital),3,0,0,1,21,125.5784222,10.0086806
ES,132521,Matingbe Elementary School,CARAGA,Dinagat Island,SAN JOSE (Capital),0,1,0,0,17,125.5755293,10.0043991
ES,132522,San Jose CES-SPED Center,CARAGA,Dinagat Island,SAN JOSE (Capital),2,0,2,0,20,125.5710674,10.0074834
ES,132523,San Juan Elementary School,CARAGA,Dinagat Island,SAN JOSE (Capital),0,0,0,0,24,125.570621,10.011924
ES,132524,Sta Cruz Elementary School,CARAGA,Dinagat Island,SAN JOSE (Capital),0,3,0,0,28,125.5701764,10.0187329
ES,132525,Wilson Elementary School,CARAGA,Dinagat Island,SAN JOSE (Capital),0,0,0,0,22,125.58959,10.0253
ES,132551,Babangnan Elementary School,CARAGA,Dinagat Island,TUBAJON,0,2,0,0,25,125.5187291,10.3090678
ES,132552,Imelda Elementary School,CARAGA,Dinagat Island,TUBAJON,0,1,0,0,21,125.5286952,10.2837651
ES,132553,Mabini Elementary School,CARAGA,Dinagat Island,TUBAJON,1,0,0,0,17,124.3577174,10.6758932
ES,132554,Malinao  Elementary School,CARAGA,Dinagat Island,TUBAJON,0,0,0,1,26,125.5837,10.293073
ES,132555,Mauro Diaz Elementary School,CARAGA,Dinagat Island,TUBAJON,0,2,0,0,24,123.3933132,13.3254849
ES,132556,Navarro Elementary School,CARAGA,Dinagat Island,TUBAJON,0,1,0,0,22,125.58113,10.277909
ES,132557,Roxas Elementary School,CARAGA,Dinagat Island,TUBAJON,0,0,0,0,14,125.553578,10.347601
ES,132558,Sta Cruz Elementary School,CARAGA,Dinagat Island,TUBAJON,2,0,0,1,21,125.56005,10.320602
ES,132559,Tubajon Central Elementary School,CARAGA,Dinagat Island,TUBAJON,5,0,0,0,16,125.55624,10.327699
ES,214004,Melody-Curada Elementary School,CARAGA,Dinagat Island,LIBJO (ALBOR),0,3,0,1,26,125.55468,10.19376
ES,132124,Cabawa Elementary School,CARAGA,Siargao,DAPA,0,1,0,0,20,126.0618087,9.7155079
ES,132125,Can-uyan Primary School,CARAGA,Siargao,DAPA,0,0,0,0,13,126.06881,9.75508
ES,132126,Consolacion Elementary School,CARAGA,Siargao,DAPA,1,0,0,0,24,126.0073793,9.6915271
ES,132127,Corregidor Elementary Schoo,CARAGA,Siargao,DAPA,0,1,0,0,19,126.0792008,9.6927216
ES,132128,Dagohoy Elementary School,CARAGA,Siargao,DAPA,0,0,0,0,11,126.0585015,9.7093419
ES,132129,Don Enrique Navarro Memorial School,CARAGA,Siargao,DAPA,4,0,0,0,22,126.055525,9.757861
ES,132130,Don Paulino Elementary School,CARAGA,Siargao,DAPA,0,0,0,0,17,126.0831574,9.7512155
ES,132131,Montserrat Elementary School,CARAGA,Siargao,DAPA,1,0,0,0,15,126.0402541,9.7094732
ES,132132,Osmena Elementary School,CARAGA,Siargao,DAPA,0,0,0,0,25,126.0777196,9.7826666
ES,132133,Sta Felomina Elementary School,CARAGA,Siargao,DAPA,0,0,0,0,14,126.02516,9.69963
ES,132134,Union Elementary School,CARAGA,Siargao,DAPA,0,5,0,0,33,126.110085,9.7546476
ES,132135,Bagacay Elementary School,CARAGA,Siargao,DAPA,1,0,0,0,14,126.044688,9.7299576
ES,132136,Buenavista Elementary School,CARAGA,Siargao,DAPA,2,0,0,0,12,125.9824533,9.7306637
ES,132137,Cambas-ac Elementary School,CARAGA,Siargao,DAPA,0,0,0,0,16,126.0322912,9.7464529
ES,132138,Catabaan Elementary School,CARAGA,Siargao,DAPA,1,0,0,0,21,126.091748,9.76468
ES,132139,Dapa Central Elementary School & SPED Center,CARAGA,Siargao,DAPA,7,0,3,0,24,126.0507723,9.7598037
ES,132140,Jubang Elementary School,CARAGA,Siargao,DAPA,0,1,0,0,17,126.0128329,9.7613038
ES,132141,New Uba Primary School,CARAGA,Siargao,DAPA,0,1,0,0,7,125.9681708,9.7128365
ES,132142,San Carlos Elementary School,CARAGA,Siargao,DAPA,1,0,0,0,14,125.9738678,9.7209222
ES,132143,San Miguel Elementary School,CARAGA,Siargao,DAPA,0,0,0,0,20,126.0278285,9.7362518
ES,132144,Sta. Fe Elementary School,CARAGA,Siargao,DAPA,0,1,0,0,19,126.012424,9.7819654
ES,132145,Anajawan Elementary School,CARAGA,Siargao,GENERAL LUNA,0,1,0,0,20,126.1371371,9.6097204
ES,132146,Cabitoonan Elementary School,CARAGA,Siargao,GENERAL LUNA,0,1,0,0,20,126.148619,9.818547
ES,132147,Catangnan Elementary School,CARAGA,Siargao,GENERAL LUNA,0,3,0,0,28,126.1595378,9.8066093
ES,132148,Consuelo Elementary School,CARAGA,Siargao,GENERAL LUNA,0,1,0,0,26,126.1077841,9.797168
ES,132149,Corazon Elementary School,CARAGA,Siargao,GENERAL LUNA,0,0,0,0,17,126.1072157,9.8143626
ES,132150,Daku Elementary School,CARAGA,Siargao,GENERAL LUNA,0,3,0,0,33,126.1558978,9.7417267
ES,132151,Dao Primary School,CARAGA,Siargao,GENERAL LUNA,0,1,0,0,18,126.1276699,9.8016837
ES,132152,General Luna CES,CARAGA,Siargao,GENERAL LUNA,0,3,1,0,31,126.1566567,9.7824069
ES,132153,La Januza Elementary School,CARAGA,Siargao,GENERAL LUNA,1,0,0,0,11,126.175568,9.6329941
ES,132154,Libertad Elementary School,CARAGA,Siargao,GENERAL LUNA,0,0,0,0,18,126.1411018,9.8267415
ES,132155,Magsaysay Elementary School,CARAGA,Siargao,GENERAL LUNA,0,1,0,0,20,126.1300435,9.8109454
ES,132156,Malinao Elementary Schol,CARAGA,Siargao,GENERAL LUNA,0,2,0,0,32,126.1269021,9.7695251
ES,132157,Mam-on Primary school,CARAGA,Siargao,GENERAL LUNA,0,2,0,0,41,126.1746735,9.6111885
ES,132158,Sta. Cruz Elementary School,CARAGA,Siargao,GENERAL LUNA,0,2,0,0,23,126.1239807,9.8359205
ES,132159,Sta. Fe Elementary School,CARAGA,Siargao,GENERAL LUNA,0,1,0,0,29,126.1380608,9.8407418
ES,132160,Suyangan Elementary School,CARAGA,Siargao,GENERAL LUNA,0,1,0,0,17,126.7694,9.61097
ES,132161,Tawin-Tawin Elementary School,CARAGA,Siargao,GENERAL LUNA,0,1,0,0,18,126.1458,9.79102
ES,132162,Antipolo Elementary School,CARAGA,Siargao,DEL CARMEN,0,1,0,0,15,126.013727,9.816369
ES,132163,Bagacay Elementary School,CARAGA,Siargao,DEL CARMEN,0,1,0,0,18,126.0265432,9.8958121
ES,132164,Bitoon Elementary School,CARAGA,Siargao,DEL CARMEN,0,1,0,0,22,126.0116135,9.7898134
ES,132165,Cabugao Elementary School,CARAGA,Siargao,DEL CARMEN,0,0,0,0,16,126.009398,9.802325
ES,132166,Cancohoy Elementary School,CARAGA,Siargao,DEL CARMEN,0,0,0,0,18,126.0154048,9.8873104
ES,132167,Dumoyog Primary School,CARAGA,Siargao,DEL CARMEN,0,1,0,0,11,125.973846,9.874045
ES,132168,Esperanza Elementary School,CARAGA,Siargao,DEL CARMEN,0,1,0,0,18,126.013957,9.86467
ES,132169,Halian Elementary School,CARAGA,Siargao,DEL CARMEN,2,0,0,0,15,125.809422,9.927092
ES,132170,Jamoyaon Elementary School,CARAGA,Siargao,DEL CARMEN,0,1,0,0,19,126.0381855,9.903166
ES,132171,Katipunan Elementary School,CARAGA,Siargao,DEL CARMEN,0,1,0,0,25,126.0126975,9.8729652
ES,132172,Lasala Elementary School,CARAGA,Siargao,DEL CARMEN,0,2,0,0,30,125.89472,9.8963397
ES,132173,Lobogon Elementary School,CARAGA,Siargao,DEL CARMEN,1,0,0,0,12,126.0121903,9.8364435
ES,132174,Mabuhay Primary School,CARAGA,Siargao,DEL CARMEN,0,1,0,0,14,125.986488,9.889815
ES,132175,Mahayahay Elementary School,CARAGA,Siargao,DEL CARMEN,0,1,0,0,20,126.0393834,9.858453
ES,132176,Numancia Central Elementary School,CARAGA,Siargao,DEL CARMEN,0,3,0,0,31,125.9731758,9.8729979
ES,132177,Quezon Primary School,CARAGA,Siargao,DEL CARMEN,0,0,0,0,10,126.050796,9.8303922
ES,132178,San Fernando Elementary School,CARAGA,Siargao,DEL CARMEN,0,1,0,0,21,125.977088,9.8259927
ES,132179,Sayak Elementary School,CARAGA,Siargao,DEL CARMEN,0,1,0,0,20,126.0206455,9.8516644
ES,132180,Tuboran Elementary School,CARAGA,Siargao,DEL CARMEN,0,1,0,0,25,126.0449862,9.8253266
ES,132181,Caridad Elementary School,CARAGA,Siargao,PILAR,0,0,0,0,23,126.1101367,9.8957959
ES,132182,Consolacion Elementary School,CARAGA,Siargao,PILAR,0,1,0,0,17,126.106155,9.8754903
ES,132183,Datu Elementary School,CARAGA,Siargao,PILAR,0,2,0,0,20,126.0658248,9.8764875
ES,132184,Dayaohay Primary School,CARAGA,Siargao,PILAR,0,1,0,0,22,126.096432,9.872943
ES,132185,Jaboy Elementary School,CARAGA,Siargao,PILAR,0,2,0,0,23,126.075407,9.899442
ES,132186,Katipunan Elementary School,CARAGA,Siargao,PILAR,0,0,0,0,17,126.0942132,9.831111
ES,132187,Maasin Elementary School,CARAGA,Siargao,PILAR,0,1,0,0,23,126.0559416,9.8197225
ES,132188,Mabini Elementary School,CARAGA,Siargao,PILAR,0,2,0,0,24,126.0641794,9.8375493
ES,132189,Mabuhay Elementary School,CARAGA,Siargao,PILAR,3,0,0,0,12,126.1093688,9.8270521
ES,132190,Pilar Central Elementary School,CARAGA,Siargao,PILAR,3,0,0,0,19,126.099335,9.8644885
ES,132191,Salvacion Elementary School,CARAGA,Siargao,PILAR,0,1,0,0,17,126.1108763,9.8456713
ES,132192,San Roque Elementary School,CARAGA,Siargao,PILAR,0,1,0,0,22,126.0661,9.8758
ES,132193,Buhing Calipay Elementary School,CARAGA,Siargao,SAN ISIDRO,0,0,0,0,16,126.066149,9.9422252
ES,132194,Del Pilar Elementary School,CARAGA,Siargao,SAN ISIDRO,1,0,0,0,13,126.072301,9.931979
ES,132195,Macapagal Primary School,CARAGA,Siargao,SAN ISIDRO,0,0,0,0,13,126.0499736,9.9216438
ES,132196,Pacifico Primary School,CARAGA,Siargao,SAN ISIDRO,0,1,0,0,19,126.1010688,9.9466127
ES,132197,Pelaez Elementary School,CARAGA,Siargao,SAN ISIDRO,0,2,0,0,29,126.054436,9.9463043
ES,132198,Roxas Elementary School,CARAGA,Siargao,SAN ISIDRO,0,1,0,0,22,126.056161,9.929553
ES,132199,San Isidro Central Elementary School,CARAGA,Siargao,SAN ISIDRO,6,0,0,0,15,126.0877991,9.9359085
ES,132200,San Miguel Primary School,CARAGA,Siargao,SAN ISIDRO,0,1,0,0,6,126.0683084,9.954177
ES,132201,Sta. Paz Elementary School,CARAGA,Siargao,SAN ISIDRO,0,1,0,0,18,126.0606849,9.8975549
ES,132202,Sto. Nino Elementary School,CARAGA,Siargao,SAN ISIDRO,0,1,0,0,17,126.0464866,9.9172354
ES,132203,Tambacan Elementary School,CARAGA,Siargao,SAN ISIDRO,1,0,0,0,15,126.0412599,9.921746
ES,132204,Tigasao Elementary School,CARAGA,Siargao,SAN ISIDRO,0,1,0,0,17,126.103287,9.926217
ES,132205,Abad Santos Elementary School,CARAGA,Siargao,SANTA MONICA (SAPAO),3,0,0,0,14,126.0288807,9.9885995
ES,132206,Alegria Elementary School,CARAGA,Siargao,SANTA MONICA (SAPAO),0,1,0,0,20,126.0696815,10.055066
ES,132207,Bailan Elementary School,CARAGA,Siargao,SANTA MONICA (SAPAO),1,0,0,0,12,126.0444414,10.006156
ES,132208,Garcia Elementary School,CARAGA,Siargao,SANTA MONICA (SAPAO),1,0,0,0,10,126.0691142,10.0411935
ES,132209,Libertad Elementary School,CARAGA,Siargao,SANTA MONICA (SAPAO),0,0,0,0,18,126.0544898,9.9831433
ES,132210,Mabini Elementary School,CARAGA,Siargao,SANTA MONICA (SAPAO),0,0,0,0,15,126.0486629,9.9637975
ES,132211,Magsaysay Elementary School,CARAGA,Siargao,SANTA MONICA (SAPAO),0,1,0,0,23,126.041521,10.032691
ES,132212,Rizal Elementary School,CARAGA,Siargao,SANTA MONICA (SAPAO),0,3,0,0,42,126.0320916,10.0293614
ES,132213,Sapao Central Elementary School,CARAGA,Siargao,SANTA MONICA (SAPAO),1,0,0,0,21,126.0371957,10.0210951
ES,132214,Tangbo Elementary School,CARAGA,Siargao,SANTA MONICA (SAPAO),0,1,0,0,15,126.0567992,10.0541562
ES,132215,Baybay Elementary School,CARAGA,Siargao,BURGOS,0,0,0,0,16,126.0896138,9.9766205
ES,132216,Bitaug Elementary School,CARAGA,Siargao,BURGOS,0,3,0,0,27,126.0698109,10.0304023
ES,132217,Burgos Central Elementary School,CARAGA,Siargao,BURGOS,1,0,0,0,22,126.0730498,10.0178842
ES,132218,Matin-ao Elementary School,CARAGA,Siargao,BURGOS,0,0,0,0,10,126.0738568,9.9662805
ES,132219,San Mateo Elementary School,CARAGA,Siargao,BURGOS,0,0,0,0,15,126.0687014,9.987979
ES,132220,Bay-ang Elementary School,CARAGA,Siargao,SOCORRO,0,1,0,0,23,125.9411239,9.5699996
ES,132221,Don. Albino Taruc Memorial ES,CARAGA,Siargao,SOCORRO,3,0,0,0,22,125.9627364,9.6141049
ES,132222,Lanit-ag Elementary School,CARAGA,Siargao,SOCORRO,0,1,0,0,15,125.9818719,9.6744626
ES,132223,N. SERING ELEMENTARY SCHOOL,CARAGA,Siargao,SOCORRO,1,0,0,0,17,125.9759762,9.684566
ES,132224,Socorro Central Elementary School and SPED Center,CARAGA,Siargao,SOCORRO,4,0,2,0,25,125.9643538,9.6201123
ES,132225,Bongdo Elementary School,CARAGA,Siargao,SAN BENITO,0,3,0,0,21,126.00466779999999,9.9129698
ES,132226,Maribojoc Elementary School,CARAGA,Siargao,SAN BENITO,0,1,0,0,17,125.9646897,9.9353307
